Timestamp,GPSYear,GPSMonth,GPSday,GPSHour,GPSMinute,GPSSecond,GPSHundredth,voltage,GPSFix,numSats,HDOP,Latitude,Longitude,GPSSpeed,GPSCourse,sysCal,gyroCal,accelCal,magCal,rawAccelX,rawAccelY,rawAccelZ,accelX,accelY,accelZ,rawGyroX,rawGyroY,rawGyroZ,gyroX,gyroY,gyroZ,rawMagX,rawMagY,rawMagZ,magX,magY,magZ,roll,pitch,yaw,linAccelX,linAccelY,linAccelZ,quatW,quatX,quatY,quatZ,imuTemp,state
1969-12-31T19:00:09.411000,411,2080,1,5,23,59,48,79,3.891249895095825,False,0,0,0,0,0,0,0,0,0,0,0.1698903888463974,-1.8281164169311523,9.767501831054688,0.18229633569717407,-1.7822407484054565,9.767105102539062,0.08749999850988388,0.17499999701976776,-0.7699999809265137,-2.5515427589416504,0.8015868663787842,-0.9906226396560669,3.946214437484741,0.0,0.0,3.73059344291687,-416.39111328125,164.06796264648438,-4.933173656463623,-0.3085494339466095,179.75704956054688,0.12946751713752747,-0.9386503100395203,-0.006370594259351492,0.9990630149841309,-0.04304240271449089,-0.0025988654233515263,-0.002234038431197405,0.0,1
1969-12-31T19:00:09.486000,486,2080,1,5,23,59,49,79,3.891249895095825,False,0,0,0,0,0,0,0,0,0,0,0.17228323221206665,-1.8209381103515625,9.741181373596191,0.18048399686813354,-1.7892448902130127,9.762413024902344,0.16625000536441803,0.2800000011920929,-0.8225000500679016,-2.293013095855713,0.7519710063934326,-0.9746299982070923,3.946214437484741,0.0,0.0,3.7511043548583984,-400.2726135253906,102.91455078125,-4.992002964019775,-0.3147348463535309,179.7556610107422,0.126596137881279,-0.9356203079223633,-0.010185572318732738,0.9990406036376953,-0.04355544224381447,-0.0026511158794164658,-0.0022498585749417543,0.0,1
1969-12-31T19:00:09.545000,545,2080,1,5,23,59,49,79,3.891249895095825,False,0,0,0,0,0,0,0,0,0,0,0.40677985548973083,-4.086941242218018,9.425329208374023,0.22144296765327454,-2.2051219940185547,9.701401710510254,1.3562499284744263,2.555000066757202,-1.277500033378601,-1.9458775520324707,0.9234838485717773,-1.003440499305725,3.946214437484741,0.0,0.0,3.7696642875671387,-404.55108642578125,115.89945220947266,-5.169735431671143,-0.3226068615913391,179.75172424316406,0.16620731353759766,-1.321187138557434,-0.06849510967731476,0.9989716410636902,-0.04510515555739403,-0.0027147012297064066,-0.002291344804689288,0.0,1
1969-12-31T19:00:09.609000,609,2080,1,5,23,59,49,79,3.9387500286102295,False,0,0,0,0,0,0,0,0,0,0,0.13878372311592102,-1.794616937637329,9.803394317626953,0.20648185908794403,-2.130821704864502,9.71986198425293,3.3249998092651367,5.591249942779541,-0.04374999925494194,-1.4444860219955444,1.3675044775009155,-0.9121500849723816,3.946214437484741,0.0,0.0,3.7864584922790527,-389.5588684082031,59.32804489135742,-5.208467483520508,-0.29990413784980774,179.75184631347656,0.15513324737548828,-1.2402806282043457,-0.049455706030130386,0.9989568591117859,-0.045442402362823486,-0.0025160631630569696,-0.0022821645252406597,0.0,1
1969-12-31T19:00:09.676000,676,2080,1,5,23,59,49,79,3.9387500286102295,False,0,0,0,0,0,0,0,0,0,0,0.7393822073936462,-1.88075852394104,9.80817985534668,0.30293548107147217,-2.0855607986450195,9.735847473144531,3.2199997901916504,6.422500133514404,3.5,-1.0007773637771606,1.848360300064087,-0.49244484305381775,3.946214437484741,0.0,0.0,3.8016552925109863,-394.8564758300781,76.4591064453125,-5.252114772796631,-0.30603885650634766,179.7692413330078,0.2505365014076233,-1.1875784397125244,-0.032783716917037964,0.9989396929740906,-0.04582260921597481,-0.002575625665485859,-0.002133994596078992,0.0,1
1969-12-31T19:00:09.741000,741,2080,1,5,23,59,49,79,3.9387500286102295,False,0,0,0,0,0,0,0,0,0,0,-0.7441678643226624,-2.445464611053467,9.604789733886719,0.11341242492198944,-2.150702476501465,9.712126731872559,16.799999237060547,-11.46250057220459,11.514999389648438,0.6925195455551147,0.5821661949157715,0.6497619152069092,3.946214437484741,0.0,0.0,3.815406560897827,-380.78643798828125,23.639446258544922,-5.261666297912598,-0.31227338314056396,179.83470153808594,0.05994601175189018,-1.2510920763015747,-0.05634884163737297,0.9989367723464966,-0.04590447247028351,-0.0026560232508927584,-0.001566000864841044,0.0,1
1969-12-31T19:00:09.799000,799,2080,1,5,23,59,49,79,3.9387500286102295,False,0,0,0,0,0,0,0,0,0,0,1.8113667964935303,-1.8927226066589355,9.052047729492188,0.4207378625869751,-2.104008674621582,9.59265422821045,-3.403749942779541,43.653751373291016,1.0325000286102295,0.30286234617233276,4.679346084594727,0.6861698627471924,3.946214437484741,0.0,0.0,3.8278496265411377,-386.91851806640625,44.165382385253906,-5.346299171447754,-0.20197564363479614,179.8218536376953,0.3861561715602875,-1.1899619102478027,-0.17456567287445068,0.9989045858383179,-0.04664114862680435,-0.00168815185315907,-0.0016351189697161317,0.0,1
1969-12-31T19:00:09.866000,866,2080,1,5,23,59,49,79,3.9462499618530273,False,0,0,0,0,0,0,0,0,0,0,-0.17946171760559082,-1.3519448041915894,9.743573188781738,0.312103271484375,-1.967887043952942,9.619970321655273,7.253749847412109,-6.369999885559082,-5.809999465942383,0.9640647768974304,3.6282782554626465,0.06822246313095093,3.946214437484741,0.0,0.0,3.839109182357788,-373.60357666015625,-5.582340240478516,-5.33903169631958,-0.22434447705745697,179.79786682128906,0.27369165420532227,-1.055080533027649,-0.14735117554664612,0.9989067912101746,-0.04657847434282303,-0.001873500645160675,-0.001853162539191544,0.0,1
1969-12-31T19:00:09.924000,924,2080,1,5,23,59,49,79,3.9462499618530273,False,0,0,0,0,0,0,0,0,0,0,0.06699904054403305,-1.4261223077774048,9.860822677612305,0.26774004101753235,-1.8698289394378662,9.66356372833252,-2.4674999713897705,1.3650000095367432,0.9362499713897705,0.6376375555992126,3.4129841327667236,0.15079349279403687,3.946214437484741,0.0,0.0,3.849297523498535,-380.4189147949219,17.723318099975586,-5.383876800537109,-0.21914508938789368,179.80413818359375,0.23021864891052246,-0.9493775963783264,-0.103044293820858,0.9988887310028076,-0.0469692125916481,-0.0018300190567970276,-0.0017971680499613285,0.0,1
1969-12-31T19:00:09.988000,988,2080,1,5,23,59,49,79,3.9462499618530273,False,0,0,0,0,0,0,0,0,0,0,0.11724831163883209,-1.3974084854125977,9.908679008483887,0.24050141870975494,-1.7843220233917236,9.707928657531738,-2.9225001335144043,7.279999732971191,1.6624999046325684,0.29897981882095337,3.7808334827423096,0.294594407081604,3.946214437484741,0.0,0.0,3.8585166931152344,-367.7222595214844,-29.50910758972168,-5.428549289703369,-0.18707208335399628,179.8111572265625,0.20847146213054657,-0.8562541007995605,-0.05797808989882469,0.9988709688186646,-0.04735807701945305,-0.001552641042508185,-0.001723483088426292,0.0,1
1969-12-31T19:00:10.027000,27,2080,1,5,23,59,49,79,3.9462499618530273,False,0,0,0,0,0,0,0,0,0,0,0.12921243906021118,-1.3902299404144287,9.841679573059082,0.22035840153694153,-1.7129923105239868,9.732137680053711,-0.7524999976158142,5.031249523162842,-0.061250001192092896,0.1989579200744629,3.8997790813446045,0.26074475049972534,3.946214437484741,0.0,0.0,3.866858959197998,-375.0970764160156,-3.927417755126953,-5.462048530578613,-0.16806621849536896,179.810546875,0.1915825605392456,-0.7792136669158936,-0.03323458880186081,0.998857319355011,-0.04764983057975769,-0.0013862150954082608,-0.0017213334795087576,0.0,1
1969-12-31T19:00:10.090000,90,2080,1,5,23,59,49,79,3.859999895095825,False,0,0,0,0,0,0,0,0,0,0,0.08614161610603333,-1.3591231107711792,9.820144653320312,0.1960655003786087,-1.6489428281784058,9.748066902160645,0.08749999850988388,3.955000162124634,-0.48125001788139343,0.1883554905653,3.90503191947937,0.19016258418560028,3.946214437484741,0.0,0.0,3.8744075298309326,-381.7703552246094,19.220815658569336,-5.489424705505371,-0.15234144032001495,179.80833435058594,0.16998200118541718,-0.7104976773262024,-0.01686595007777214,0.9988461136817932,-0.04788826406002045,-0.0012478146236389875,-0.001734318328090012,0.0,1
1969-12-31T19:00:10.149000,149,2080,1,5,23,59,49,79,3.859999895095825,False,0,0,0,0,0,0,0,0,0,0,0.06460621953010559,-1.3471590280532837,9.832108497619629,0.1722716987133026,-1.5943207740783691,9.763278007507324,-0.8837499618530273,-4.322500228881836,-0.6737499833106995,0.08637157827615738,3.1223888397216797,0.10798299312591553,3.946214437484741,0.0,0.0,3.8812382221221924,-387.808837890625,40.167076110839844,-5.5206298828125,-0.17681759595870972,179.80914306640625,0.14199747145175934,-0.6505585312843323,-0.0011294971918687224,0.998832643032074,-0.048160601407289505,-0.0014610306825488806,-0.0017378738848492503,0.0,1
1969-12-31T19:00:10.216000,216,2080,1,5,23,59,49,79,3.859999895095825,False,0,0,0,0,0,0,0,0,0,0,0.11485548317432404,-1.3591231107711792,9.822537422180176,0.1618795096874237,-1.5517505407333374,9.774003982543945,0.20124998688697815,1.8462498188018799,-0.7612499594688416,0.09729937463998795,3.0009963512420654,0.025297299027442932,3.946214437484741,0.0,0.0,3.8874189853668213,-374.4092102050781,-9.200309753417969,-5.546866416931152,-0.1733020693063736,179.8065643310547,0.13220719993114471,-0.6035169959068298,0.010026496835052967,0.9988217353820801,-0.04838927090167999,-0.001428899122402072,-0.0017592335352674127,0.0,1
1969-12-31T19:00:10.275000,275,2080,1,5,23,59,49,79,3.859999895095825,False,0,0,0,0,0,0,0,0,0,0,0.11246266961097717,-1.368694543838501,9.832108497619629,0.152935191988945,-1.518617868423462,9.784521102905273,0.29750001430511475,4.821249961853027,-0.6562499403953552,0.1163434386253357,3.174147844314575,-0.039534807205200195,3.946214437484741,0.0,0.0,3.8930118083953857,-381.1479187011719,14.449506759643555,-5.572843551635742,-0.15482620894908905,179.80308532714844,0.12642626464366913,-0.5659565329551697,0.0209665447473526,0.9988108277320862,-0.048615481704473495,-0.0012659827480092645,-0.0017820384819060564,0.0,1
1969-12-31T19:00:10.341000,341,2080,1,5,23,59,49,79,3.856250047683716,False,0,0,0,0,0,0,0,0,0,0,0.07657032459974289,-1.3615161180496216,9.81535816192627,0.13911335170269012,-1.490182876586914,9.7901029586792,0.33250001072883606,-0.9537500143051147,-1.0412499904632568,0.13690531253814697,2.781481981277466,-0.13482286036014557,3.946214437484741,0.0,0.0,3.8980727195739746,-368.38189697265625,-32.47149658203125,-5.5981316566467285,-0.1634010672569275,179.80052185058594,0.11113625764846802,-0.5332128405570984,0.026973916217684746,0.9987999200820923,-0.04883604869246483,-0.001339235925115645,-0.0018083503236994147,0.0,1
1969-12-31T19:00:10.401000,401,2080,1,5,23,59,49,79,3.856250047683716,False,0,0,0,0,0,0,0,0,0,0,0.12203396111726761,-1.3519448041915894,9.832108497619629,0.13602203130722046,-1.4651621580123901,9.79770565032959,-0.6037499904632568,-3.255000114440918,-0.9362499713897705,0.0664505586028099,2.2072622776031494,-0.21105852723121643,3.946214437484741,0.0,0.0,3.9026522636413574,-375.6939697265625,-6.608011245727539,-5.627188205718994,-0.18591336905956268,179.7996368408203,0.10419045388698578,-0.5032421350479126,0.03507497161626816,0.9987871646881104,-0.04908965155482292,-0.0015346173895522952,-0.0018260740907862782,0.0,1
1969-12-31T19:00:10.467000,467,2080,1,5,23,59,50,80,3.856250047683716,False,0,0,0,0,0,0,0,0,0,0,0.1411765217781067,-1.349552035331726,9.784252166748047,0.13695497810840607,-1.4442369937896729,9.795270919799805,0.5074999928474426,2.266249895095825,-0.8049999475479126,0.10840533673763275,2.2128734588623047,-0.26755714416503906,3.946214437484741,0.0,0.0,3.9067962169647217,-382.31048583984375,16.795215606689453,-5.650648593902588,-0.1818142831325531,179.7967071533203,0.10582523792982101,-0.47831934690475464,0.03303225710988045,0.9987771511077881,-0.049294114112854004,-0.001497258897870779,-0.0018500834703445435,0.0,1
1969-12-31T19:00:10.526000,526,2080,1,5,23,59,50,80,3.856250047683716,False,0,0,0,0,0,0,0,0,0,0,0.07417750358581543,-1.3519448041915894,9.841679573059082,0.1255924105644226,-1.4275323152542114,9.803670883178711,0.026249999180436134,1.0325000286102295,-0.699999988079071,0.10059031844139099,2.100590467453003,-0.3086932301521301,3.946214437484741,0.0,0.0,3.910545825958252,-388.297607421875,37.97221374511719,-5.675985813140869,-0.17993605136871338,179.79493713378906,0.09478425234556198,-0.4572974741458893,0.04185973480343819,0.9987661838531494,-0.049514953047037125,-0.001479715690948069,-0.001865007565356791,0.0,1
1969-12-31T19:00:10.592000,592,2080,1,5,23,59,50,80,4.006249904632568,False,0,0,0,0,0,0,0,0,0,0,0.15314064919948578,-1.3591231107711792,9.81775188446045,0.13057857751846313,-1.4151504039764404,9.806219100952148,-0.3412500023841858,-2.3450000286102295,-0.8137500286102295,0.05856030434370041,1.677704095840454,-0.3567367196083069,3.946214437484741,0.0,0.0,3.9139387607574463,-374.85150146484375,-11.186386108398438,-5.703526496887207,-0.1995178461074829,179.79429626464844,0.09641768783330917,-0.44022467732429504,0.044886305928230286,0.9987539649009705,-0.0497552864253521,-0.0016496613388881087,-0.0018794453935697675,0.0,1
1969-12-31T19:00:10.651000,651,2080,1,5,23,59,50,80,4.006249904632568,False,0,0,0,0,0,0,0,0,0,0,0.09810572862625122,-1.3399807214736938,9.820144653320312,0.12470107525587082,-1.4015449285507202,9.80873966217041,-0.017500000074505806,-0.05249999836087227,-0.7175000309944153,0.05132507532835007,1.5131186246871948,-0.39105430245399475,3.946214437484741,0.0,0.0,3.917008876800537,-381.54815673828125,12.65235710144043,-5.728071689605713,-0.20427390933036804,179.7930145263672,0.08972587436437607,-0.4224378168582916,0.047828372567892075,0.9987431764602661,-0.04996930807828903,-0.0016901500057429075,-0.0018930943915620446,0.0,1
1969-12-31T19:00:10.716000,716,2080,1,5,23,59,50,80,4.006249904632568,False,0,0,0,0,0,0,0,0,0,0,0.12921243906021118,-1.349552035331726,9.81535816192627,0.12551762163639069,-1.3921343088150024,9.809937477111816,0.2887499928474426,3.0275001525878906,-0.6562499403953552,0.07391009479761124,1.657173991203308,-0.4162810146808624,3.946214437484741,0.0,0.0,3.9197871685028076,-368.74407958984375,-34.097694396972656,-5.75143575668335,-0.19543522596359253,179.79051208496094,0.09205574542284012,-0.4090462327003479,0.04942125454545021,0.9987330436706543,-0.05017285421490669,-0.0016116322949528694,-0.0019114007009193301,0.0,1
1969-12-31T19:00:10.777000,777,2080,1,5,23,59,50,80,4.006249904632568,False,0,0,0,0,0,0,0,0,0,0,0.09810572862625122,-1.3328022956848145,9.822537422180176,0.12055613845586777,-1.3813953399658203,9.812217712402344,-0.33250001072883606,0.6387500166893005,-0.5862500071525574,0.03525037690997124,1.5602965354919434,-0.4324492812156677,3.946214437484741,0.0,0.0,3.9223010540008545,-376.0216979980469,-8.07951545715332,-5.776680946350098,-0.19673627614974976,179.78956604003906,0.08687150478363037,-0.3940069377422333,0.05213607847690582,0.9987219572067261,-0.05039290711283684,-0.0016221351688727736,-0.0019205572316423059,0.0,1
1969-12-31T19:00:10.841000,841,2080,1,5,23,59,50,80,3.963749885559082,False,0,0,0,0,0,0,0,0,0,0,0.12442677468061447,-1.3471590280532837,9.80100154876709,0.12125671654939651,-1.3751986026763916,9.810187339782715,0.2887499928474426,-2.362499952316284,-1.1549999713897705,0.059364501386880875,1.187140941619873,-0.5011818408966064,3.946214437484741,0.0,0.0,3.9245758056640625,-363.7433166503906,-52.857444763183594,-5.799567222595215,-0.2147812843322754,179.78732299804688,0.08448248356580734,-0.3839127719402313,0.05051204189658165,0.9987115263938904,-0.050592683255672455,-0.0017780304187908769,-0.001948429155163467,0.0,1
1969-12-31T19:00:10.904000,904,2080,1,5,23,59,50,80,3.963749885559082,False,0,0,0,0,0,0,0,0,0,0,0.11246266961097717,-1.373480200767517,9.846465110778809,0.11966501921415329,-1.3748875856399536,9.816753387451172,-0.367499977350235,1.3124998807907104,-0.6299999952316284,0.018759064376354218,1.1990656852722168,-0.5134356617927551,3.946214437484741,0.0,0.0,3.9266340732574463,-371.4966125488281,-25.05474853515625,-5.826669692993164,-0.2133803367614746,179.78585815429688,0.08313065022230148,-0.3789850175380707,0.05754707008600235,0.9986995458602905,-0.050828900188207626,-0.0017647136701270938,-0.001960925292223692,0.0,1
1969-12-31T19:00:10.970000,970,2080,1,5,23,59,50,80,3.963749885559082,False,0,0,0,0,0,0,0,0,0,0,0.10289137810468674,-1.3112668991088867,9.7938232421875,0.11662903428077698,-1.3633724451065063,9.812602996826172,0.367499977350235,0.03500000014901161,-0.9625000357627869,0.05193300545215607,1.088334083557129,-0.556152880191803,3.946214437484741,0.0,0.0,3.9284965991973877,-378.51239013671875,0.10321998596191406,-5.846688747406006,-0.2180057168006897,179.7834014892578,0.07930272072553635,-0.3640604615211487,0.05374803766608238,0.9986905455589294,-0.05100347846746445,-0.0018035873072221875,-0.0019847394432872534,0.0,1
1969-12-31T19:00:11.026000,26,2080,1,5,23,59,50,80,3.963749885559082,False,0,0,0,0,0,0,0,0,0,0,0.10767702758312225,-1.3878371715545654,9.856036186218262,0.11500874161720276,-1.3678004741668701,9.820464134216309,-1.006250023841858,-0.5774999856948853,-0.42875000834465027,-0.04872654378414154,0.9298717975616455,-0.5440337061882019,3.946214437484741,0.0,0.0,3.9301819801330566,-384.86077880859375,22.868040084838867,-5.877294540405273,-0.22559639811515808,179.78395080566406,0.07638278603553772,-0.3632762134075165,0.06214923784136772,0.9986767768859863,-0.05127032473683357,-0.0018694568425416946,-0.0019838304724544287,0.0,1
1969-12-31T19:00:11.090000,90,2080,1,5,23,59,50,80,3.822499990463257,False,0,0,0,0,0,0,0,0,0,0,0.11485548317432404,-1.3160523176193237,9.76989459991455,0.11498100310564041,-1.3584342002868652,9.811310768127441,0.27125000953674316,0.026249999180436134,-0.8925000429153442,-0.018288806080818176,0.8439148664474487,-0.5771815180778503,3.946214437484741,0.0,0.0,3.9317071437835693,-371.7415771484375,-24.853776931762695,-5.8977789878845215,-0.2308269441127777,179.78187561035156,0.07545948773622513,-0.3504215478897095,0.05335904285311699,0.9986674785614014,-0.05144896358251572,-0.0019137525232508779,-0.0020046515855938196,0.0,1
1969-12-31T19:00:11.149000,149,2080,1,5,23,59,50,80,3.822499990463257,False,0,0,0,0,0,0,0,0,0,0,0.0813559740781784,-1.3280166387557983,9.77946662902832,0.1088949590921402,-1.3529287576675415,9.805546760559082,0.17499999701976776,0.9449999928474426,-0.8487499952316284,9.777024388313293e-05,0.8535305857658386,-0.6030144691467285,3.946214437484741,0.0,0.0,3.933087110519409,-378.7340393066406,0.28507423400878906,-5.91916561126709,-0.22946473956108093,179.77955627441406,0.06960667669773102,-0.3412736654281616,0.04797184094786644,0.998657763004303,-0.051635369658470154,-0.0019004655769094825,-0.002024533925577998,0.0,1
1969-12-31T19:00:11.215000,215,2080,1,5,23,59,50,80,3.822499990463257,False,0,0,0,0,0,0,0,0,0,0,0.12921243906021118,-1.3543376922607422,9.822537422180176,0.11257237195968628,-1.3531837463378906,9.808622360229492,-0.04374999925494194,-0.5162500143051147,-0.8925000429153442,-0.0040732440538704395,0.7232303619384766,-0.6305517554283142,3.946214437484741,0.0,0.0,3.934335947036743,-366.1976623535156,-45.288536071777344,-5.942622184753418,-0.2381545603275299,179.77781677246094,0.07179625332355499,-0.33753475546836853,0.05146733298897743,0.9986470937728882,-0.051839955151081085,-0.001974991988390684,-0.0020440712105482817,0.0,1
1969-12-31T19:00:11.274000,274,2080,1,5,23,59,50,80,3.822499990463257,False,0,0,0,0,0,0,0,0,0,0,0.08853443711996078,-1.34476637840271,9.80817985534668,0.10822156816720963,-1.3516602516174316,9.808542251586914,0.03500000014901161,-1.6099998950958252,-0.9800000190734863,-0.00035640597343444824,0.5012820959091187,-0.6637929677963257,3.946214437484741,0.0,0.0,3.9354658126831055,-373.7174987792969,-18.205829620361328,-5.965029716491699,-0.24990350008010864,179.77621459960938,0.06543384492397308,-0.332196444272995,0.051793862134218216,0.9986366629600525,-0.05203544348478317,-0.0020762586500495672,-0.002063681138679385,0.0,1
1969-12-31T19:00:11.338000,338,2080,1,5,23,59,50,80,3.8612499237060547,False,0,0,0,0,0,0,0,0,0,0,0.10049854964017868,-1.368694543838501,9.839286804199219,0.10682372003793716,-1.3547433614730835,9.814106941223145,-0.061250001192092896,0.5774999856948853,-0.7612499594688416,-0.006148902699351311,0.5085322856903076,-0.6730635762214661,3.946214437484741,0.0,0.0,3.936488389968872,-361.6583251953125,-62.0204963684082,-5.988829135894775,-0.2512196898460388,179.77459716796875,0.06381063908338547,-0.33122679591178894,0.05778467282652855,0.9986256957054138,-0.052242908626794815,-0.0020865637343376875,-0.0020787925459444523,0.0,1
1969-12-31T19:00:11.401000,401,2080,1,5,23,59,50,80,3.8612499237060547,False,0,0,0,0,0,0,0,0,0,0,0.08853443711996078,-1.3351950645446777,9.80817985534668,0.10351340472698212,-1.3512051105499268,9.813034057617188,-0.21875,0.5600000023841858,-0.7262499332427979,-0.026372559368610382,0.5134281516075134,-0.6781229376792908,3.946214437484741,0.0,0.0,3.9374136924743652,-369.6099548339844,-33.34616470336914,-6.0115227699279785,-0.2519231140613556,179.77317810058594,0.060379888862371445,-0.32382437586784363,0.05711813643574715,0.9986153244972229,-0.052440714091062546,-0.002091630594804883,-0.0020919328089803457,0.0,1
1969-12-31T19:00:11.466000,466,2080,1,5,23,59,51,80,3.8612499237060547,False,0,0,0,0,0,0,0,0,0,0,0.10767702758312225,-1.3543376922607422,9.805787086486816,0.10426700860261917,-1.3517720699310303,9.811722755432129,0.19249999523162842,-0.9012499451637268,-0.9537500143051147,-0.005552330985665321,0.3788570463657379,-0.7043419480323792,-478.8073425292969,0.0,0.0,-41.9836311340332,-376.8052062988281,-7.39947509765625,-6.0330400466918945,-0.26615971326828003,179.76687622070312,0.0586959607899189,-0.3207286596298218,0.05620467662811279,0.9986050128936768,-0.05262858420610428,-0.002212406601756811,-0.002153828740119934,0.0,1
1969-12-31T19:00:11.524000,524,2080,1,5,23,59,51,80,3.8612499237060547,False,0,0,0,0,0,0,0,0,0,0,0.14356936514377594,-1.3280166387557983,9.839286804199219,0.11138063669204712,-1.3474724292755127,9.81671142578125,-0.24500000476837158,-0.07874999940395355,-0.7612499594688416,-0.028329765424132347,0.33532723784446716,-0.7097553014755249,3.946214437484741,0.0,0.0,-37.614559173583984,-383.3160095214844,16.079038619995117,-6.05479621887207,-0.27308157086372375,179.76568603515625,0.06462445110082626,-0.31272533535957336,0.061591219156980515,0.9985948204994202,-0.05281831696629524,-0.0022717718966305256,-0.0021677666809409857,0.0,1
1969-12-31T19:00:11.591000,591,2080,1,5,23,59,51,80,3.862499952316284,False,0,0,0,0,0,0,0,0,0,0,0.08853443711996078,-1.3806586265563965,9.824929237365723,0.107245534658432,-1.353479027748108,9.818199157714844,0.21875,0.6912499666213989,-0.7699999809265137,-0.0048263296484947205,0.36918434500694275,-0.7154860496520996,3.946214437484741,0.0,0.0,-33.661094665527344,-370.34375,-30.996976852416992,-6.077152252197266,-0.2729423940181732,179.7640838623047,0.06051318347454071,-0.3149256706237793,0.06348294019699097,0.998584508895874,-0.053013164550065994,-0.0022693928331136703,-0.0021821416448801756,0.0,1
1969-12-31T19:00:11.651000,651,2080,1,5,23,59,51,80,3.862499952316284,False,0,0,0,0,0,0,0,0,0,0,0.1339980810880661,-1.34476637840271,9.820144653320312,0.1120876744389534,-1.3519020080566406,9.818551063537598,0.017500000074505806,-0.32375001907348633,-0.8837499618530273,-0.0027025400195270777,0.30326902866363525,-0.7314921617507935,3.946214437484741,0.0,0.0,-30.083703994750977,-377.4692077636719,-5.273754119873047,-6.098288536071777,-0.2805488109588623,179.762451171875,0.0640529915690422,-0.3097509443759918,0.0642244890332222,0.9985745549201965,-0.05319751054048538,-0.0023345195222646,-0.0022002668119966984,0.0,1
1969-12-31T19:00:11.714000,714,2080,1,5,23,59,51,80,3.862499952316284,False,0,0,0,0,0,0,0,0,0,0,0.10049854964017868,-1.3950155973434448,9.839286804199219,0.10999007523059845,-1.3597054481506348,9.822303771972656,-0.4112500250339508,-0.8925000429153442,-0.73499995470047,-0.04156557843089104,0.18952162563800812,-0.7318258285522461,3.946214437484741,0.0,0.0,-26.84661102294922,-365.0531311035156,-50.31858825683594,-6.124094486236572,-0.28888052701950073,179.76190185546875,0.060528870671987534,-0.3131616711616516,0.06845536828041077,0.9985622763633728,-0.05342255160212517,-0.0024063712917268276,-0.002209477359429002,0.0,1
1969-12-31T19:00:11.775000,775,2080,1,5,23,59,51,80,3.862499952316284,False,0,0,0,0,0,0,0,0,0,0,0.09810572862625122,-1.3663017749786377,9.803394317626953,0.10783904045820236,-1.3608993291854858,9.818881034851074,0.367499977350235,0.0,-0.9537500143051147,-0.002653263509273529,0.17149339616298676,-0.7529363632202148,3.946214437484741,0.0,0.0,-23.91744613647461,-372.6818542480469,-22.75739860534668,-6.144403457641602,-0.2926968038082123,179.75979614257812,0.05772443115711212,-0.31089866161346436,0.06540732830762863,0.998552680015564,-0.053599633276462555,-0.002438247436657548,-0.002230086363852024,0.0,1
1969-12-31T19:00:11.839000,839,2080,1,5,23,59,51,80,3.865000009536743,False,0,0,0,0,0,0,0,0,0,0,0.11006984114646912,-1.3806586265563965,9.853643417358398,0.10824280977249146,-1.3644757270812988,9.825173377990723,-0.4112500250339508,0.5249999761581421,-0.6037499904632568,-0.04152098670601845,0.20512066781520844,-0.7387450337409973,3.946214437484741,0.0,0.0,-21.266918182373047,-360.72119140625,-66.13909912109375,-6.168843746185303,-0.2943410277366638,179.75917053222656,0.057846687734127045,-0.31031495332717896,0.0721498653292656,0.9985411763191223,-0.05381264165043831,-0.002451804932206869,-0.0022368417121469975,0.0,1
1969-12-31T19:00:11.898000,898,2080,1,5,23,59,51,80,3.865000009536743,False,0,0,0,0,0,0,0,0,0,0,0.05742774158716202,-1.2921241521835327,9.796216011047363,0.09904541075229645,-1.3513802289962769,9.819931983947754,0.42875000834465027,-0.3149999976158142,-0.9362499713897705,0.003213491290807724,0.1556442379951477,-0.7575326561927795,3.946214437484741,0.0,0.0,-18.86852264404297,-368.7619934082031,-37.0729866027832,-6.184223175048828,-0.2973161041736603,179.75732421875,0.04813990741968155,-0.2946017384529114,0.06719435006380081,0.9985338449478149,-0.05394675210118294,-0.002476560650393367,-0.002254653023555875,0.0,1
1969-12-31T19:00:11.964000,964,2080,1,5,23,59,51,80,3.865000009536743,False,0,0,0,0,0,0,0,0,0,0,0.11485548317432404,-1.368694543838501,9.889535903930664,0.10190699249505997,-1.3545141220092773,9.83253002166748,-0.6212499737739563,0.05249999836087227,-0.5862500071525574,-0.05618852749466896,0.14583265781402588,-0.7412394285202026,3.946214437484741,0.0,0.0,-16.698272705078125,-357.1741943359375,-79.0929183959961,-6.208373069763184,-0.30151137709617615,179.75704956054688,0.050283193588256836,-0.2936253249645233,0.08024249225854874,0.9985223412513733,-0.05415727198123932,-0.002512517850846052,-0.0022594514302909374,0.0,1
1969-12-31T19:00:12.026000,26,2080,1,5,23,59,51,80,3.865000009536743,False,0,0,0,0,0,0,0,0,0,0,0.09092725813388824,-1.37587308883667,9.812965393066406,0.09991969168186188,-1.3583800792694092,9.828989028930664,0.5425000190734863,0.11374999582767487,-1.0149999856948853,0.0007616542279720306,0.14278079569339752,-0.7672808766365051,3.946214437484741,0.0,0.0,-14.734468460083008,-365.5523986816406,-48.79457473754883,-6.227483749389648,-0.3042618930339813,179.754638671875,0.04782497137784958,-0.294238805770874,0.07705797255039215,0.9985132217407227,-0.05432389676570892,-0.002534961560741067,-0.0022822432219982147,0.0,1
1969-12-31T19:00:12.090000,90,2080,1,5,23,59,51,80,3.848750114440918,False,0,0,0,0,0,0,0,0,0,0,0.13160523772239685,-1.373480200767517,9.844072341918945,0.10565469413995743,-1.36111319065094,9.831719398498535,-0.45499998331069946,-0.19249999523162842,-0.6912499666213989,-0.042592622339725494,0.11088724434375763,-0.7600484490394592,3.946214437484741,0.0,0.0,-12.957470893859863,-354.2699279785156,-89.69949340820312,-6.251026630401611,-0.31066447496414185,179.7540283203125,0.052463751286268234,-0.29296553134918213,0.08023260533809662,0.9985018372535706,-0.05452916771173477,-0.0025899887550622225,-0.0022911925334483385,0.0,1
1969-12-31T19:00:12.151000,151,2080,1,5,23,59,51,80,3.848750114440918,False,0,0,0,0,0,0,0,0,0,0,0.08374879509210587,-1.3328022956848145,9.80817985534668,0.10168978571891785,-1.3559889793395996,9.827458381652832,0.3762499988079071,-0.73499995470047,-1.0674999952316284,-0.0027502626180648804,0.030422315001487732,-0.7892947196960449,3.946214437484741,0.0,0.0,-11.349510192871094,-362.92437744140625,-58.39219665527344,-6.268137454986572,-0.31716853380203247,179.7518310546875,0.04738524556159973,-0.2849298119544983,0.07629693299531937,0.998493492603302,-0.054678428918123245,-0.002645273460075259,-0.0023138029500842094,0.0,1
1969-12-31T19:00:12.215000,215,2080,1,5,23,59,51,80,3.848750114440918,False,0,0,0,0,0,0,0,0,0,0,0.12681959569454193,-1.3830515146255493,9.834501266479492,0.1062382161617279,-1.3608872890472412,9.828733444213867,-0.5162500143051147,0.24500000476837158,-0.6037499904632568,-0.05159686878323555,0.050833992660045624,-0.7716447710990906,3.946214437484741,0.0,0.0,-9.894506454467773,-351.8918762207031,-98.38414001464844,-6.292229652404785,-0.3209567964076996,179.75144958496094,0.051285065710544586,-0.28572842478752136,0.07802682369947433,0.9984818696975708,-0.05488842725753784,-0.0026776122394949198,-0.0023195180110633373,0.0,1
1969-12-31T19:00:12.274000,274,2080,1,5,23,59,51,80,3.848750114440918,False,0,0,0,0,0,0,0,0,0,0,0.11246266961097717,-1.349552035331726,9.820144653320312,0.10736482590436935,-1.3588355779647827,9.827178955078125,0.16625000536441803,0.19249999523162842,-0.8399999737739563,-0.030874209478497505,0.06430995464324951,-0.7781470417976379,3.946214437484741,0.0,0.0,-8.577909469604492,-360.7725524902344,-66.25071716308594,-6.310871601104736,-0.3242853879928589,179.74990844726562,0.05184177681803703,-0.2805044949054718,0.07682587951421738,0.9984728097915649,-0.055050961673259735,-0.002705500926822424,-0.0023349199909716845,0.0,1
1969-12-31T19:00:12.339000,339,2080,1,5,23,59,51,80,3.8737499713897705,False,0,0,0,0,0,0,0,0,0,0,0.11724831163883209,-1.368694543838501,9.858429908752441,0.10915371030569077,-1.3606200218200684,9.83283519744873,-0.4024999737739563,-0.05249999836087227,-0.6212499737739563,-0.066225066781044,0.05319841951131821,-0.7632222175598145,3.946214437484741,0.0,0.0,-7.386553764343262,-349.94476318359375,-105.49512481689453,-6.332981109619141,-0.3289308547973633,179.74961853027344,0.05283529311418533,-0.27852702140808105,0.08290368318557739,0.9984620213508606,-0.05524369701743126,-0.0027453876100480556,-0.0023402110673487186,0.0,1
1969-12-31T19:00:12.399000,399,2080,1,5,23,59,51,80,3.8737499713897705,False,0,0,0,0,0,0,0,0,0,0,0.10289137810468674,-1.3663017749786377,9.81775188446045,0.10802024602890015,-1.361648440361023,9.83010482788086,0.19249999523162842,-0.1574999988079071,-0.8925000429153442,-0.041613876819610596,0.03315575420856476,-0.7755197286605835,3.946214437484741,0.0,0.0,-6.308525085449219,-359.0106506347656,-72.68527221679688,-6.352085590362549,-0.333402544260025,179.748046875,0.05093621090054512,-0.2763049006462097,0.08053892105817795,0.9984526634216309,-0.05541028082370758,-0.0027831988409161568,-0.002356547163799405,0.0,1
1969-12-31T19:00:12.463000,463,2080,1,5,23,59,52,80,3.8737499713897705,False,0,0,0,0,0,0,0,0,0,0,0.1052841916680336,-1.3663017749786377,9.81535816192627,0.10752502828836441,-1.3624906539916992,9.827435493469238,-0.33250001072883606,0.2887499928474426,-0.7437500357627869,-0.06928438693284988,0.05746912956237793,-0.7724976539611816,3.946214437484741,0.0,0.0,-5.333044052124023,-348.3504638671875,-111.31758880615234,-6.373658180236816,-0.3356727063655853,179.74697875976562,0.05005229637026787,-0.27347660064697266,0.07828135788440704,0.9984421133995056,-0.05559831112623215,-0.002802019938826561,-0.0023674401454627514,0.0,1
1969-12-31T19:00:12.524000,524,2080,1,5,23,59,52,80,3.8737499713897705,False,0,0,0,0,0,0,0,0,0,0,0.09810572862625122,-1.3663017749786377,9.834501266479492,0.10582015663385391,-1.36318039894104,9.828714370727539,-0.061250001192092896,-0.17499999701976776,-0.8662499785423279,-0.06852011382579803,0.03535553067922592,-0.7814158201217651,3.946214437484741,0.0,0.0,-4.450355529785156,-357.5680236816406,-77.95387268066406,-6.393517017364502,-0.33987000584602356,179.74557495117188,0.047628793865442276,-0.2707878649234772,0.07994232326745987,0.9984323382377625,-0.05577144771814346,-0.0028374972753226757,-0.002382199512794614,0.0,1
1969-12-31T19:00:12.588000,588,2080,1,5,23,59,52,80,3.918750047683716,False,0,0,0,0,0,0,0,0,0,0,0.07896315306425095,-1.3519448041915894,9.822537422180176,0.10095910727977753,-1.3611468076705933,9.827596664428711,-0.20999999344348907,-0.3412500023841858,-0.7087500095367432,-0.08197837322950363,-0.0004690326750278473,-0.7745034694671631,3.946214437484741,0.0,0.0,-3.651632785797119,-347.0450439453125,-116.08501434326172,-6.413209915161133,-0.34366747736930847,179.74505615234375,0.04211755841970444,-0.26540395617485046,0.07920454442501068,0.9984226226806641,-0.055943116545677185,-0.002869923133403063,-0.0023890400771051645,0.0,1
1969-12-31T19:00:12.646000,646,2080,1,5,23,59,52,80,3.918750047683716,False,0,0,0,0,0,0,0,0,0,0,0.13878372311592102,-1.3567304611206055,9.81057357788086,0.1078052669763565,-1.3603475093841553,9.824515342712402,-0.3062500059604645,0.16625000536441803,-0.6475000381469727,-0.103312186896801,0.015390098094940186,-0.7624222636222839,3.946214437484741,0.0,0.0,-2.9288883209228516,-356.38677978515625,-82.26780700683594,-6.433565616607666,-0.34834104776382446,179.74456787109375,0.04816353693604469,-0.2611418068408966,0.076517753303051,0.998412549495697,-0.05612057447433472,-0.0029099811799824238,-0.0023960666730999947,0.0,1
1969-12-31T19:00:12.710000,710,2080,1,5,23,59,52,80,3.918750047683716,False,0,0,0,0,0,0,0,0,0,0,0.10049854964017868,-1.3543376922607422,9.80817985534668,0.10648276656866074,-1.3592597246170044,9.821558952331543,-0.22749999165534973,0.2800000011920929,-0.7437500357627869,-0.11512553691864014,0.04056108742952347,-0.7606460452079773,3.946214437484741,0.0,0.0,-2.274894952774048,-345.9761657714844,-119.98858642578125,-6.4532151222229,-0.35024672746658325,179.74356079101562,0.046514756977558136,-0.25671130418777466,0.07394091784954071,0.9984028339385986,-0.05629183351993561,-0.0029256721027195454,-0.0024064029566943645,0.0,1
1969-12-31T19:00:12.770000,770,2080,1,5,23,59,52,80,3.918750047683716,False,0,0,0,0,0,0,0,0,0,0,0.10767702758312225,-1.3782658576965332,9.841679573059082,0.10669892281293869,-1.3626997470855713,9.825201034545898,-0.22749999165534973,-0.07874999940395355,-0.8049999475479126,-0.12581513822078705,0.029211632907390594,-0.7648652195930481,3.946214437484741,0.0,0.0,-1.683112621307373,-355.4195861816406,-85.800048828125,-6.473781108856201,-0.35434606671333313,179.74244689941406,0.04602905362844467,-0.2566531002521515,0.07798361778259277,0.9983925819396973,-0.056471116840839386,-0.0029604113660752773,-0.0024185827933251858,0.0,1
1969-12-31T19:00:12.834000,834,2080,1,5,23,59,52,80,3.8837499618530273,False,0,0,0,0,0,0,0,0,0,0,0.1339980810880661,-1.3543376922607422,9.822537422180176,0.11163999885320663,-1.3611862659454346,9.824718475341797,-0.07874999940395355,-0.17499999701976776,-0.7262499332427979,-0.12133806943893433,0.009786024689674377,-0.7611919641494751,3.946214437484741,0.0,0.0,-1.1476235389709473,-345.1009826660156,-123.18482971191406,-6.492193222045898,-0.36037689447402954,179.74179077148438,0.04993756115436554,-0.25200799107551575,0.0778636708855629,0.9983832836151123,-0.0566316656768322,-0.003012243891134858,-0.0024277386255562305,0.0,1
1969-12-31T19:00:12.892000,892,2080,1,5,23,59,52,80,3.8837499618530273,False,0,0,0,0,0,0,0,0,0,0,0.08853443711996078,-1.34476637840271,9.81775188446045,0.1074579507112503,-1.358214259147644,9.823457717895508,-0.11374999582767487,0.07874999940395355,-0.73499995470047,-0.12061625719070435,0.016346216201782227,-0.758700430393219,3.946214437484741,0.0,0.0,-0.6630727648735046,-354.6276550292969,-88.69224548339844,-6.510096073150635,-0.362470418214798,179.74095153808594,0.045397065579891205,-0.24599070847034454,0.0769522488117218,0.998374342918396,-0.05678770691156387,-0.0030296905897557735,-0.0024365270510315895,0.0,1
1969-12-31T19:00:12.962000,962,2080,1,5,23,59,52,80,3.8837499618530273,False,0,0,0,0,0,0,0,0,0,0,0.12203396111726761,-1.373480200767517,9.9350004196167,0.11009617149829865,-1.3609774112701416,9.843647003173828,-1.4175000190734863,0.8137500286102295,-0.23624999821186066,-0.243982195854187,0.0921991690993309,-0.7090023756027222,3.946214437484741,0.0,0.0,-0.22461479902267456,-320.89373779296875,-80.25540161132812,-6.535078525543213,-0.3624645471572876,179.74220275878906,0.048036303371191025,-0.24450431764125824,0.09762702137231827,0.9983620047569275,-0.05700532719492912,-0.0030297243501991034,-0.0024263858795166016,0.0,1
1969-12-31T19:00:13.027000,27,2080,1,5,23,59,52,80,3.8837499618530273,False,0,0,0,0,0,0,0,0,0,0,0.033499520272016525,-1.3064812421798706,9.734003067016602,0.09623236954212189,-1.3511137962341309,9.82380199432373,4.733750343322754,-2.8612499237060547,-3.0012500286102295,0.22952407598495483,-0.1887473464012146,-0.9270521998405457,3.946214437484741,0.0,0.0,0.1721348762512207,-332.7231140136719,-49.846473693847656,-6.5267229080200195,-0.3772693872451782,179.7317657470703,0.03163769468665123,-0.2360638827085495,0.07763592898845673,0.9983654618263245,-0.05693308264017105,-0.0031537048052996397,-0.0025244189891964197,0.0,1
1969-12-31T19:00:13.093000,93,2080,1,5,23,59,52,80,3.8524999618530273,False,0,0,0,0,0,0,0,0,0,0,0.19142581522464752,-1.4979069232940674,9.987641334533691,0.11346214264631271,-1.3776829242706299,9.853456497192383,-3.5174999237060547,2.161250114440918,1.1725000143051147,-0.1269111931324005,0.034795910120010376,-0.7273325324058533,-478.8073425292969,0.0,0.0,-45.39073944091797,-343.449462890625,-22.33019256591797,-6.5686469078063965,-0.3810642957687378,179.7340087890625,0.04821773245930672,-0.2555023729801178,0.10811281949281693,0.9983445405960083,-0.05729834735393524,-0.0031869658268988132,-0.0025079078041017056,0.0,1
1969-12-31T19:00:13.153000,153,2080,1,5,23,59,52,80,3.8524999618530273,False,0,0,0,0,0,0,0,0,0,0,0.08614161610603333,-1.2969099283218384,9.68375301361084,0.10851719975471497,-1.3630632162094116,9.82274055480957,2.047499895095825,-0.9712499380111694,-1.653749942779541,0.0799294263124466,-0.06090409308671951,-0.8154578804969788,-478.8073425292969,0.0,0.0,-86.61944580078125,-353.1332092285156,2.568603515625,-6.573244571685791,-0.3962690234184265,179.7239532470703,0.040669530630111694,-0.24010269343852997,0.07750439643859863,0.9983415603637695,-0.05733897536993027,-0.0033143034670501947,-0.002603210275992751,0.0,1
1969-12-31T19:00:13.217000,217,2080,1,5,23,59,52,80,3.8524999618530273,False,0,0,0,0,0,0,0,0,0,0,0.12921243906021118,-1.4644074440002441,9.89432144165039,0.11226298660039902,-1.381406307220459,9.83569622039795,-1.8462498188018799,1.3124998807907104,0.14875000715255737,-0.10329817235469818,0.06974082440137863,-0.7237377166748047,3.946214437484741,0.0,0.0,-78.00439453125,-343.0321044921875,-43.222232818603516,-6.60527229309082,-0.3936786353588104,179.72703552246094,0.04485882818698883,-0.2529979944229126,0.09108627587556839,0.9983256459236145,-0.05761787295341492,-0.003292553359642625,-0.0025760552380234003,0.0,1
1969-12-31T19:00:13.276000,276,2080,1,5,23,59,52,80,3.8524999618530273,False,0,0,0,0,0,0,0,0,0,0,0.10049854964017868,-1.3567304611206055,9.760323524475098,0.11013365536928177,-1.3769400119781494,9.822053909301758,1.9250000715255737,-1.5137500762939453,-1.618749976158142,0.0896434634923935,-0.08088857680559158,-0.8088756799697876,3.946214437484741,0.0,0.0,-70.20885467529297,-352.75555419921875,-16.336082458496094,-6.613034725189209,-0.40461134910583496,179.72288513183594,0.040857672691345215,-0.24721300601959229,0.07760995626449585,0.9983212947845459,-0.05768582969903946,-0.003385537303984165,-0.0026179172564297915,0.0,1
1969-12-31T19:00:13.344000,344,2080,1,5,23,59,52,80,3.848750114440918,False,0,0,0,0,0,0,0,0,0,0,0.10289137810468674,-1.3950155973434448,9.856036186218262,0.10882282257080078,-1.380211591720581,9.828204154968262,1.1112500429153442,-1.75,-1.4524998664855957,0.18682368099689484,-0.23966261744499207,-0.8701003789901733,3.946214437484741,0.0,0.0,-63.15486145019531,-342.69036865234375,-60.328609466552734,-6.626227855682373,-0.4165939688682556,179.71975708007812,0.03749525547027588,-0.24824237823486328,0.08403564244508743,0.9983141422271729,-0.057801101356744766,-0.0034880507737398148,-0.002651606220752001,0.0,1
1969-12-31T19:00:13.403000,403,2080,1,5,23,59,52,80,3.848750114440918,False,0,0,0,0,0,0,0,0,0,0,0.07896315306425095,-1.2993026971817017,9.738787651062012,0.10341829806566238,-1.3655673265457153,9.812020301818848,1.2337499856948853,0.39375001192092896,-1.2599999904632568,0.28641241788864136,-0.17940931022167206,-0.9071895480155945,3.946214437484741,0.0,0.0,-56.77187728881836,-352.44635009765625,-31.81521987915039,-6.634115695953369,-0.41638222336769104,179.7163543701172,0.032126981765031815,-0.23225656151771545,0.0680074617266655,0.9983100891113281,-0.05786992236971855,-0.0034843033645302057,-0.002681414596736431,0.0,1
1969-12-31T19:00:13.468000,468,2080,1,5,23,59,53,80,3.848750114440918,False,0,0,0,0,0,0,0,0,0,0,0.13160523772239685,-1.3591231107711792,9.851250648498535,0.10852006077766418,-1.3644009828567505,9.819121360778809,-0.6650000214576721,0.2800000011920929,-0.5600000023841858,0.19590941071510315,-0.1357080489397049,-0.8741631507873535,3.946214437484741,0.0,0.0,-50.99607467651367,-342.41058349609375,-74.33529663085938,-6.654013156890869,-0.4193139374256134,179.71653747558594,0.036726802587509155,-0.22770695388317108,0.07550607621669769,0.9982999563217163,-0.05804331228137016,-0.0035094749182462692,-0.0026818423066288233,0.0,1
1969-12-31T19:00:13.529000,529,2080,1,5,23,59,53,80,3.848750114440918,False,0,0,0,0,0,0,0,0,0,0,0.10049854964017868,-1.3639088869094849,9.822537422180176,0.10706818848848343,-1.364311933517456,9.81973934173584,-0.5249999761581421,0.03500000014901161,-0.5862500071525574,0.12733298540115356,-0.11946946382522583,-0.846775472164154,3.946214437484741,0.0,0.0,-45.76969528198242,-352.19317626953125,-44.48951721191406,-6.673521518707275,-0.42167481780052185,179.7167510986328,0.03487072139978409,-0.2243008315563202,0.07651443779468536,0.9982900023460388,-0.05821330100297928,-0.0035296897403895855,-0.002681851154193282,0.0,1
1969-12-31T19:00:13.593000,593,2080,1,5,23,59,53,80,3.831249952316284,False,0,0,0,0,0,0,0,0,0,0,0.12203396111726761,-1.349552035331726,9.824929237365723,0.10977695882320404,-1.361640453338623,9.8206787109375,0.09624999761581421,-0.17499999701976776,-0.8662499785423279,0.12437622249126434,-0.12475179880857468,-0.8486279845237732,3.946214437484741,0.0,0.0,-41.04047393798828,-361.0451965332031,-17.482816696166992,-6.688885688781738,-0.42646437883377075,179.71566772460938,0.036759451031684875,-0.21901723742485046,0.07776636630296707,0.9982819557189941,-0.05834728479385376,-0.0035705112386494875,-0.002694082213565707,0.0,1
1969-12-31T19:00:13.652000,652,2080,1,5,23,59,53,80,3.831249952316284,False,0,0,0,0,0,0,0,0,0,0,0.10289137810468674,-1.3639088869094849,9.80817985534668,0.1085306853055954,-1.362051010131836,9.818416595458984,0.14875000715255737,-0.16625000536441803,-0.918749988079071,0.12669476866722107,-0.12869931757450104,-0.8552983403205872,3.946214437484741,0.0,0.0,-36.7611198425293,-369.05517578125,6.954872131347656,-6.704797267913818,-0.4300987422466278,179.71435546875,0.03489092364907265,-0.2167227417230606,0.07582616060972214,0.9982737302780151,-0.05848601087927818,-0.003601127304136753,-0.0027078918647021055,0.0,1
1969-12-31T19:00:13.719000,719,2080,1,5,23,59,53,80,3.831249952316284,False,0,0,0,0,0,0,0,0,0,0,0.11724831163883209,-1.3232309818267822,9.81057357788086,0.11010855436325073,-1.3550246953964233,9.816996574401855,-0.07000000029802322,-0.4024999737739563,-0.875,0.10798420011997223,-0.15474458038806915,-0.857172429561615,3.946214437484741,0.0,0.0,-32.88883972167969,-357.4394836425781,-39.253204345703125,-6.719302177429199,-0.43567976355552673,179.71339416503906,0.0355132520198822,-0.20723077654838562,0.0747036263346672,0.9982661008834839,-0.05861251801252365,-0.0036489118356257677,-0.002719583921134472,0.0,1
1969-12-31T19:00:13.777000,777,2080,1,5,23,59,53,80,3.831249952316284,False,0,0,0,0,0,0,0,0,0,0,0.09810572862625122,-1.3591231107711792,9.839286804199219,0.1079360768198967,-1.3557665348052979,9.821030616760254,-0.20124998688697815,-0.10499999672174454,-0.7175000309944153,0.07856833189725876,-0.15001262724399567,-0.843886137008667,3.946214437484741,0.0,0.0,-29.38490867614746,-365.7924499511719,-12.744606018066406,-6.7361626625061035,-0.43851083517074585,179.71307373046875,0.032856058329343796,-0.20510633289813995,0.07907973229885101,0.9982573390007019,-0.05875945836305618,-0.003673006547614932,-0.0027244295924901962,0.0,1
1969-12-31T19:00:13.841000,841,2080,1,5,23,59,53,80,4.026249885559082,False,0,0,0,0,0,0,0,0,0,0,0.11006984114646912,-1.3519448041915894,9.81775188446045,0.10832228511571884,-1.3550747632980347,9.82043743133545,-0.41999998688697815,0.4637500047683716,-0.6387500166893005,0.03114207461476326,-0.09162852168083191,-0.8243725895881653,3.946214437484741,0.0,0.0,-26.21428871154785,-373.350830078125,11.242362976074219,-6.753715515136719,-0.4391501247882843,179.71279907226562,0.03313282132148743,-0.20143015682697296,0.07883995026350021,0.9982483386993408,-0.05891239270567894,-0.0036780203226953745,-0.002727651270106435,0.0,1
1969-12-31T19:00:13.901000,901,2080,1,5,23,59,53,80,4.026249885559082,False,0,0,0,0,0,0,0,0,0,0,0.12921243906021118,-1.3423734903335571,9.80817985534668,0.11210335046052933,-1.3527758121490479,9.818219184875488,0.35875001549720764,-0.17499999701976776,-0.9099999666213989,0.062305744737386703,-0.0995592251420021,-0.8325178623199463,3.946214437484741,0.0,0.0,-23.345273971557617,-380.1902160644531,32.947574615478516,-6.766725540161133,-0.4442319869995117,179.71156311035156,0.03604380786418915,-0.19691987335681915,0.07689070701599121,0.9982414245605469,-0.059025876224040985,-0.0037213426548987627,-0.002741476520895958,0.0,1
1969-12-31T19:00:13.966000,966,2080,1,5,23,59,53,80,4.026249885559082,False,0,0,0,0,0,0,0,0,0,0,0.11964112520217896,-1.3351950645446777,9.841679573059082,0.11346767097711563,-1.3495937585830688,9.822465896606445,-0.3499999940395355,-0.1574999988079071,-0.6737499833106995,0.023085206747055054,-0.10507083684206009,-0.8174150586128235,3.946214437484741,0.0,0.0,-20.749174118041992,-367.51531982421875,-15.733055114746094,-6.782495021820068,-0.44846323132514954,179.7115020751953,0.036683689802885056,-0.19105756282806396,0.08146152645349503,0.9982331395149231,-0.059163328260183334,-0.0037577906623482704,-0.0027447491884231567,0.0,1
1969-12-31T19:00:14.027000,27,2080,1,5,23,59,53,80,4.026249885559082,False,0,0,0,0,0,0,0,0,0,0,0.0813559740781784,-1.3806586265563965,9.844072341918945,0.10765553265810013,-1.355216383934021,9.826376914978027,0.14000000059604645,0.0,-0.8312499523162842,0.03420671448111534,-0.09507598727941513,-0.8187311291694641,3.946214437484741,0.0,0.0,-18.400028228759766,-374.9098205566406,8.538188934326172,-6.7982354164123535,-0.44975221157073975,179.7105712890625,0.03065085969865322,-0.19400423765182495,0.0856931284070015,0.9982249140739441,-0.059300508350133896,-0.0037681669928133488,-0.0027539338916540146,0.0,1
1969-12-31T19:00:14.096000,96,2080,1,5,23,59,53,80,3.8399999141693115,False,0,0,0,0,0,0,0,0,0,0,0.10289137810468674,-1.349552035331726,9.868000030517578,0.10679323226213455,-1.3541911840438843,9.833910942077637,-0.45499998331069946,-0.07874999940395355,-0.6737499833106995,-0.012329019606113434,-0.09352298080921173,-0.8049398064613342,3.946214437484741,0.0,0.0,-16.274343490600586,-362.7372131347656,-37.82050323486328,-6.814846038818359,-0.45255735516548157,179.71047973632812,0.02930828183889389,-0.1901557445526123,0.09356789290904999,0.9982162117958069,-0.05944525822997093,-0.0037921550683677197,-0.0027567571960389614,0.0,1
1969-12-31T19:00:14.155000,155,2080,1,5,23,59,53,80,3.8399999141693115,False,0,0,0,0,0,0,0,0,0,0,0.11246266961097717,-1.3232309818267822,9.812965393066406,0.10781938582658768,-1.3485875129699707,9.830120086669922,0.3149999976158142,-0.27125000953674316,-0.997499942779541,0.018808117136359215,-0.11042924225330353,-0.8232570886611938,3.946214437484741,0.0,0.0,-14.350865364074707,-370.58624267578125,-11.448192596435547,-6.826356887817383,-0.45707306265830994,179.70889282226562,0.02956128679215908,-0.1825958788394928,0.0900174155831337,0.9982100129127502,-0.05954567715525627,-0.003830387257039547,-0.0027733631432056427,0.0,1
1969-12-31T19:00:14.221000,221,2080,1,5,23,59,53,80,3.8399999141693115,False,0,0,0,0,0,0,0,0,0,0,0.10049854964017868,-1.373480200767517,9.832108497619629,0.10649432986974716,-1.3530930280685425,9.830479621887207,-0.4375,0.13124999403953552,-0.6475000381469727,-0.024598145857453346,-0.08743952959775925,-0.8065382242202759,3.946214437484741,0.0,0.0,-12.610357284545898,-358.8249206542969,-55.90568161010742,-6.844262599945068,-0.4586322009563446,179.70883178710938,0.027969295158982277,-0.18405790627002716,0.09074375778436661,0.9982006549835205,-0.05970168113708496,-0.0038435065653175116,-0.0027752516325563192,0.0,1
1969-12-31T19:00:14.281000,281,2080,1,5,23,59,53,80,3.8399999141693115,False,0,0,0,0,0,0,0,0,0,0,0.1052841916680336,-1.3663017749786377,9.820144653320312,0.1062752977013588,-1.3554837703704834,9.828609466552734,0.13124999403953552,-0.07874999940395355,-0.8662499785423279,-0.00977310724556446,-0.08661293983459473,-0.8122183084487915,3.946214437484741,0.0,0.0,-11.035415649414062,-367.04608154296875,-27.813020706176758,-6.858829021453857,-0.46163466572761536,179.70782470703125,0.027236199006438255,-0.1839728206396103,0.08917541801929474,0.9981929063796997,-0.05982867255806923,-0.003868777770549059,-0.002786160446703434,0.0,1
1969-12-31T19:00:14.348000,348,2080,1,5,23,59,53,80,3.771250009536743,False,0,0,0,0,0,0,0,0,0,0,0.11964112520217896,-1.3830515146255493,9.836893081665039,0.10869447886943817,-1.3604735136032104,9.830108642578125,-0.3149999976158142,0.017500000074505806,-0.7175000309944153,-0.03880778327584267,-0.07670921087265015,-0.8032082319259644,3.946214437484741,0.0,0.0,-9.610289573669434,-355.62152099609375,-70.71380615234375,-6.876319885253906,-0.4648596942424774,179.70750427246094,0.029103219509124756,-0.18598997592926025,0.09103681147098541,0.9981836676597595,-0.05998110771179199,-0.0038962794933468103,-0.002791194710880518,0.0,1
1969-12-31T19:00:14.406000,406,2080,1,5,23,59,53,80,3.771250009536743,False,0,0,0,0,0,0,0,0,0,0,0.09810572862625122,-1.3663017749786377,9.796216011047363,0.10677794367074966,-1.3615283966064453,9.823974609375,0.27125000953674316,-0.23624999821186066,-0.9537500143051147,-0.009313568472862244,-0.091885507106781,-0.817528486251831,3.946214437484741,0.0,0.0,-8.320728302001953,-364.14739990234375,-41.2125244140625,-6.890070915222168,-0.46823763847351074,179.70616149902344,0.026608336716890335,-0.18470802903175354,0.08518990129232407,0.9981762766838074,-0.06010100618004799,-0.003924667835235596,-0.002805084455758333,0.0,1
1969-12-31T19:00:14.471000,471,2080,1,5,23,59,54,80,3.771250009536743,False,0,0,0,0,0,0,0,0,0,0,0.11964112520217896,-1.37587308883667,9.844072341918945,0.10910614579916,-1.3641247749328613,9.827611923217773,-0.33250001072883606,-0.04374999925494194,-0.7437500357627869,-0.04005664587020874,-0.08730661869049072,-0.8105103373527527,3.946214437484741,0.0,0.0,-7.153836727142334,-352.9985656738281,-82.83868408203125,-6.906885147094727,-0.4717162847518921,179.7057647705078,0.028340954333543777,-0.18444709479808807,0.08917756378650665,0.9981673359870911,-0.060247551649808884,-0.00395435094833374,-0.0028109156992286444,0.0,1
1969-12-31T19:00:14.533000,533,2080,1,5,23,59,54,80,3.771250009536743,False,0,0,0,0,0,0,0,0,0,0,0.0813559740781784,-1.3399807214736938,9.7938232421875,0.10408343374729156,-1.3597548007965088,9.82149600982666,0.29750001430511475,-0.23624999821186066,-0.9362499713897705,-0.007946603000164032,-0.10147484391927719,-0.8224713206291199,3.946214437484741,0.0,0.0,-6.097945690155029,-361.7739562988281,-52.184024810791016,-6.918722629547119,-0.4740515351295471,179.70452880859375,0.022918418049812317,-0.17806541919708252,0.08330917358398438,0.9981609582901001,-0.06035076081752777,-0.003973748534917831,-0.0028233660850673914,0.0,1
1969-12-31T19:00:14.597000,597,2080,1,5,23,59,54,80,4.027500152587891,False,0,0,0,0,0,0,0,0,0,0,0.13160523772239685,-1.3471590280532837,9.844072341918945,0.10906480997800827,-1.3574750423431396,9.825582504272461,-0.19249999523162842,0.04374999925494194,-0.7612499594688416,-0.025502223521471024,-0.08766034245491028,-0.8166476488113403,3.946214437484741,0.0,0.0,-5.142496109008789,-369.714599609375,-24.445384979248047,-6.932924270629883,-0.47774451971054077,179.70401000976562,0.02726752683520317,-0.17337268590927124,0.08769280463457108,0.9981534481048584,-0.06047455221414566,-0.004005288239568472,-0.0028303922154009342,0.0,1
1969-12-31T19:00:14.656000,656,2080,1,5,23,59,54,80,4.027500152587891,False,0,0,0,0,0,0,0,0,0,0,0.11006984114646912,-1.3423734903335571,9.824929237365723,0.10924671590328217,-1.3547416925430298,9.825464248657227,0.1837499886751175,-0.03500000014901161,-0.8837499618530273,-0.005597129464149475,-0.0826510339975357,-0.8230307698249817,3.946214437484741,0.0,0.0,-4.277933597564697,-376.89990234375,0.6546192169189453,-6.944976806640625,-0.48063817620277405,179.7029266357422,0.02695400081574917,-0.16859124600887299,0.0878291055560112,0.9981468319892883,-0.06057964265346527,-0.004029624629765749,-0.002841758541762829,0.0,1
1969-12-31T19:00:14.722000,722,2080,1,5,23,59,54,80,4.027500152587891,False,0,0,0,0,0,0,0,0,0,0,0.11724831163883209,-1.3519448041915894,9.841679573059082,0.11069498211145401,-1.3542354106903076,9.828398704528809,-0.11374999582767487,-0.11374999582767487,-0.7699999809265137,-0.015885159373283386,-0.0856093168258667,-0.817986249923706,3.946214437484741,0.0,0.0,-3.495612382888794,-364.5379943847656,-44.95414733886719,-6.958826541900635,-0.48422983288764954,179.7024688720703,0.027787325903773308,-0.16573190689086914,0.09105543792247772,0.9981393814086914,-0.06070036441087723,-0.00406032707542181,-0.0028480878099799156,0.0,1
1969-12-31T19:00:14.785000,785,2080,1,5,23,59,54,80,4.027500152587891,False,0,0,0,0,0,0,0,0,0,0,0.08853443711996078,-1.34476637840271,9.820144653320312,0.10668397694826126,-1.352521538734436,9.826904296875,0.03500000014901161,-0.1837499886751175,-0.8399999737739563,-0.011044714599847794,-0.09494493901729584,-0.8200802803039551,3.946214437484741,0.0,0.0,-2.7877094745635986,-372.2156982421875,-17.903249740600586,-6.971555709838867,-0.48653221130371094,179.70172119140625,0.023382140323519707,-0.1618550717830658,0.08982862532138824,0.9981325268745422,-0.06081131845712662,-0.004079665057361126,-0.0028563193045556545,0.0,1
1969-12-31T19:00:14.851000,851,2080,1,5,23,59,54,80,3.884999990463257,False,0,0,0,0,0,0,0,0,0,0,0.13160523772239685,-1.3184453248977661,9.841679573059082,0.1111946627497673,-1.3463538885116577,9.829578399658203,-0.04374999925494194,-0.07874999940395355,-0.8487499952316284,-0.014155801385641098,-0.09340439736843109,-0.8228074908256531,3.946214437484741,0.0,0.0,-2.1471457481384277,-360.29937744140625,-61.7467041015625,-6.982882499694824,-0.4907739758491516,179.7008514404297,0.02716657519340515,-0.1537633091211319,0.09274442493915558,0.9981263279914856,-0.060910094529390335,-0.004115871153771877,-0.002866508439183235,0.0,1
1969-12-31T19:00:14.912000,912,2080,1,5,23,59,54,80,3.884999990463257,False,0,0,0,0,0,0,0,0,0,0,0.11006984114646912,-1.3543376922607422,9.803394317626953,0.11099107563495636,-1.3477989435195923,9.82483959197998,-0.04374999925494194,-0.2800000011920929,-0.8137500286102295,-0.01697094552218914,-0.11115428805351257,-0.8219459056854248,3.946214437484741,0.0,0.0,-1.5675156116485596,-368.3802795410156,-33.098419189453125,-6.996459007263184,-0.4947319030761719,179.7003173828125,0.026285354048013687,-0.15290197730064392,0.08829426020383835,0.9981189370155334,-0.06102844700217247,-0.0041497196070849895,-0.002873786725103855,0.0,1
1969-12-31T19:00:14.981000,981,2080,1,5,23,59,54,80,3.884999990463257,False,0,0,0,0,0,0,0,0,0,0,0.12203396111726761,-1.3543376922607422,9.834501266479492,0.11298981308937073,-1.3489824533462524,9.82658863067627,-0.2800000011920929,-0.05249999836087227,-0.6912499666213989,-0.04199155792593956,-0.10557480156421661,-0.8095134496688843,3.946214437484741,0.0,0.0,-1.043022632598877,-356.82879638671875,-75.49642944335938,-7.010845184326172,-0.4981195032596588,179.70025634765625,0.027704091742634773,-0.1516413390636444,0.09034866839647293,0.9981111288070679,-0.0611538290977478,-0.004178832285106182,-0.002876661717891693,0.0,1
1969-12-31T19:00:15.027000,27,2080,1,5,23,59,54,80,3.884999990463257,False,0,0,0,0,0,0,0,0,0,0,0.1052841916680336,-1.3710873126983643,9.7938232421875,0.11159511655569077,-1.3529833555221558,9.820657730102539,0.0,0.07874999940395355,-0.7875000238418579,-0.03799711540341377,-0.08804092556238174,-0.8074194192886353,3.946214437484741,0.0,0.0,-0.5684220194816589,-365.2398376464844,-45.540199279785156,-7.024972915649414,-0.4999392628669739,179.69964599609375,0.02599783055484295,-0.15324190258979797,0.08471594750881195,0.9981034994125366,-0.06127694249153137,-0.004194003529846668,-0.0028834373224526644,0.0,1
1969-12-31T19:00:15.093000,93,2080,1,5,23,59,54,80,3.9100000858306885,False,0,0,0,0,0,0,0,0,0,0,0.09810572862625122,-1.3710873126983643,9.836893081665039,0.10915356874465942,-1.3562601804733276,9.823596000671387,-0.07000000029802322,-0.04374999925494194,-0.7524999976158142,-0.041041385382413864,-0.08382775634527206,-0.8021951913833618,3.946214437484741,0.0,0.0,-0.13896769285202026,-353.9870910644531,-86.75469207763672,-7.038974285125732,-0.5018883943557739,179.6992950439453,0.023222574964165688,-0.15413999557495117,0.08795047551393509,0.9980959296226501,-0.061398945748806,-0.004210438579320908,-0.002888075541704893,0.0,1
1969-12-31T19:00:15.152000,152,2080,1,5,23,59,54,80,3.9100000858306885,False,0,0,0,0,0,0,0,0,0,0,0.14356936514377594,-1.3280166387557983,9.81535816192627,0.11538273841142654,-1.3511481285095215,9.822105407714844,-0.1574999988079071,0.017500000074505806,-0.7699999809265137,-0.05211949720978737,-0.0741889625787735,-0.7991326451301575,3.946214437484741,0.0,0.0,0.24963483214378357,-362.66845703125,-55.72752380371094,-7.0509796142578125,-0.5061727166175842,179.69879150390625,0.028718212619423866,-0.14698860049247742,0.08671894669532776,0.9980892539024353,-0.06150363013148308,-0.004247188568115234,-0.0028951081912964582,0.0,1
1969-12-31T19:00:15.216000,216,2080,1,5,23,59,54,80,3.9100000858306885,False,0,0,0,0,0,0,0,0,0,0,0.08374879509210587,-1.3280166387557983,9.82971477508545,0.10965707153081894,-1.3469613790512085,9.823482513427734,-0.20999999344348907,-0.008750000037252903,-0.7962499856948853,-0.06713785976171494,-0.0679640918970108,-0.7988584041595459,3.946214437484741,0.0,0.0,0.6012715697288513,-351.6603088378906,-95.97294616699219,-7.063022136688232,-0.5070945024490356,179.6981964111328,0.02283473312854767,-0.14075586199760437,0.08835051208734512,0.9980827569961548,-0.061608560383319855,-0.004254589322954416,-0.00290128868073225,0.0,1
1969-12-31T19:00:15.277000,277,2080,1,5,23,59,54,80,3.9100000858306885,False,0,0,0,0,0,0,0,0,0,0,0.09810572862625122,-1.34476637840271,9.827322959899902,0.10756630450487137,-1.3465640544891357,9.824177742004395,-0.05249999836087227,-0.08749999850988388,-0.8225000500679016,-0.06574543565511703,-0.06982244551181793,-0.8011072874069214,3.946214437484741,0.0,0.0,0.9194588661193848,-360.5630187988281,-64.06889343261719,-7.075139999389648,-0.5092445611953735,179.69752502441406,0.02037585712969303,-0.13830021023750305,0.08930420875549316,0.9980761408805847,-0.06171416491270065,-0.004272649995982647,-0.002908705035224557,0.0,1
