Timestamp,GPSYear,GPSMonth,GPSday,GPSHour,GPSMinute,GPSSecond,GPSHundredth,voltage,GPSFix,numSats,HDOP,Latitude,Longitude,GPSSpeed,GPSCourse,sysCal,gyroCal,accelCal,magCal,rawAccelX,rawAccelY,rawAccelZ,accelX,accelY,accelZ,rawGyroX,rawGyroY,rawGyroZ,gyroX,gyroY,gyroZ,rawMagX,rawMagY,rawMagZ,magX,magY,magZ,roll,pitch,yaw,linAccelX,linAccelY,linAccelZ,quatW,quatX,quatY,quatZ,imuTemp,state
1969-12-31T19:36:13,0,2023,1,12,14,36,11,15,0.0,False,0,0,0,0,0,0,0,0,0,0,-0.10289137810468674,0.07417750358581543,9.851250648498535,1.0917099714279175,0.045909713953733444,9.861679077148438,-0.017500000074505806,-0.6037499904632568,-0.49000000953674316,-0.11978856474161148,-0.5556051731109619,-0.5556051731109619,0.0,0.0,0.0,0.0,0.0,0.0,0.3072550892829895,1.034145712852478,244.60000610351562,1.2687642574310303,-0.006688923109322786,0.05346035212278366,0.8452315330505371,-0.0025559822097420692,0.009060770273208618,0.5343092679977417,0.0,1
1969-12-31T19:36:13.011000,11,2023,1,12,14,36,11,15,0.0,False,0,0,0,0,0,0,0,0,0,0,-0.1746760606765747,0.02153540402650833,9.956535339355469,0.8624973297119141,0.04149802774190903,9.8788480758667,-0.14000000059604645,-0.6037499904632568,-0.5249999761581421,-0.12171117216348648,-0.5567613244056702,-0.5567613244056702,0.0,0.0,0.0,0.0,0.0,0.0,0.3067992925643921,1.0043953657150269,244.59664916992188,1.0344586372375488,-0.011023069731891155,0.07053884118795395,0.8452487587928772,-0.0024203548673540354,0.008839281275868416,0.5342862606048584,0.0,1
1969-12-31T19:36:13.022000,22,2023,1,12,14,36,11,15,0.0,False,0,0,0,0,0,0,0,0,0,0,6.283552169799805,0.0526420958340168,9.987641334533691,1.8436944484710693,0.043515074998140335,9.898539543151855,0.008750000037252903,-0.6650000214576721,-0.4987499713897705,-0.10930106788873672,-0.5600721836090088,-0.5600721836090088,0.0,0.0,0.0,0.0,0.0,0.0,0.3064690828323364,0.9472215175628662,244.59326171875,2.0058679580688477,-0.008950391784310341,0.09006312489509583,0.8452674150466919,-0.002155944937840104,0.008416088297963142,0.5342647433280945,0.0,1
1969-12-31T19:36:13.033000,33,2023,1,12,14,36,11,15,0.0,False,0,0,0,0,0,0,0,0,0,0,4.914857387542725,0.05742774158716202,9.903892517089844,2.399567127227783,0.046033233404159546,9.899508476257324,-0.3412500023841858,-0.6737499833106995,-0.21875,-0.13136518001556396,-0.5450663566589355,-0.5450663566589355,0.0,0.0,0.0,0.0,0.0,0.0,0.3061087429523468,0.8753212690353394,244.58995056152344,2.549431562423706,-0.006371588911861181,0.09083598852157593,0.8452861309051514,-0.0018231254070997238,0.007884107530117035,0.5342444777488708,0.0,1
1969-12-31T19:36:13.044000,44,2023,1,12,14,36,11,15,0.0,False,0,0,0,0,0,0,0,0,0,0,-1.7994027137756348,0.04307080805301666,9.719645500183105,1.6395642757415771,0.04549704119563103,9.86695384979248,-0.3062500059604645,-0.9362499713897705,-0.2800000011920929,-0.1480010747909546,-0.5533797144889832,-0.5533797144889832,0.0,0.0,0.0,0.0,0.0,0.0,0.30565571784973145,0.8241101503372192,244.58660888671875,1.7806615829467773,-0.006830913480371237,0.05815088376402855,0.8453038930892944,-0.0015874762320891023,0.0075042881071567535,0.5342226028442383,0.0,1
1969-12-31T19:36:13.055000,55,2023,1,12,14,36,11,15,0.0,False,0,0,0,0,0,0,0,0,0,0,-5.898308277130127,0.10767702758312225,9.858429908752441,0.27522850036621094,0.05675145983695984,9.865410804748535,-0.24500000476837158,-0.9099999666213989,-0.3149999976158142,-0.15722808241844177,-0.5611738562583923,-0.5611738562583923,0.0,0.0,0.0,0.0,0.0,0.0,0.3054843544960022,0.8120046257972717,244.58322143554688,0.414253294467926,0.004452686291188002,0.05657803267240524,0.8453201651573181,-0.0015320819802582264,0.007414237596094608,0.5341982841491699,0.0,1
1969-12-31T19:36:13.066000,66,2023,1,12,14,36,11,15,0.0,False,0,0,0,0,0,0,0,0,0,0,-5.072783946990967,0.04785645380616188,9.970891952514648,-0.6927481889724731,0.05514148622751236,9.884502410888672,-0.17499999701976776,-0.7699999809265137,-0.4724999964237213,-0.15891863405704498,-0.5690940022468567,-0.5690940022468567,0.0,0.0,0.0,0.0,0.0,0.0,0.30525481700897217,0.8279660940170288,244.57980346679688,-0.5509908199310303,0.002882210537791252,0.07570908963680267,0.8453354239463806,-0.001607963815331459,0.007530958857387304,0.5341721773147583,0.0,1
1969-12-31T19:36:13.077000,77,2023,1,12,14,36,11,15,0.0,False,0,0,0,0,0,0,0,0,0,0,-0.2799602746963501,0.04307080805301666,9.889535903930664,-0.6180346012115479,0.052956722676754,9.88541316986084,-0.07000000029802322,-0.6737499833106995,-0.45499998331069946,-0.15046025812625885,-0.5684718489646912,-0.5684718489646912,0.0,0.0,0.0,0.0,0.0,0.0,0.30500471591949463,0.8417173624038696,244.57638549804688,-0.4739230275154114,0.0007404541247524321,0.07665244489908218,0.8453509211540222,-0.0016736871330067515,0.007631282322108746,0.5341463088989258,0.0,1
1969-12-31T19:36:13.088000,88,2023,1,12,14,36,11,15,0.0,False,0,0,0,0,0,0,0,0,0,0,-0.1986043006181717,0.07896315306425095,9.899106979370117,-0.5421187877655029,0.057663820683956146,9.88789176940918,-0.10499999672174454,-0.7087500095367432,-0.4987499713897705,-0.1461358517408371,-0.5731227397918701,-0.5731227397918701,0.0,0.0,0.0,0.0,0.0,0.0,0.3049122393131256,0.8531993627548218,244.57293701171875,-0.39604148268699646,0.005463527049869299,0.07916124910116196,0.845366358757019,-0.0017276625148952007,0.00771560613065958,0.5341202616691589,0.0,1
1969-12-31T19:36:13.099000,99,2023,1,12,14,36,11,15,0.0,False,0,0,0,0,0,0,0,0,0,0,-0.20817558467388153,0.0813559740781784,9.903892517089844,-0.481675922870636,0.06195203959941864,9.890788078308105,-0.09624999761581421,-0.6299999952316284,-0.49000000953674316,-0.14139047265052795,-0.5713927149772644,-0.5713927149772644,0.0,0.0,0.0,0.0,0.0,0.0,0.30496761202812195,0.8628981113433838,244.56951904296875,-0.33393824100494385,0.00974240805953741,0.08208146691322327,0.845382034778595,-0.001772230607457459,0.007787465117871761,0.5340944528579712,0.0,1
1969-12-31T19:36:13.110000,110,2023,1,12,14,36,11,15,0.0,False,0,0,0,0,0,0,0,0,0,0,-1.1389836072921753,0.06460621953010559,9.891928672790527,-0.60064697265625,0.062432438135147095,9.89099407196045,-0.12250000238418579,-0.5774999856948853,-0.5687500238418579,-0.13959351181983948,-0.5716211199760437,-0.5716211199760437,0.0,0.0,0.0,0.0,0.0,0.0,0.3050449788570404,0.875998854637146,244.56607055664062,-0.4506664276123047,0.010209743864834309,0.08232229202985764,0.845397412776947,-0.0018324890406802297,0.007884528487920761,0.5340683460235596,0.0,1
1969-12-31T19:36:13.121000,121,2023,1,12,14,36,11,15,0.0,False,0,0,0,0,0,0,0,0,0,0,-7.252645492553711,0.09571290761232376,9.853643417358398,-1.804641842842102,0.06845612078905106,9.884233474731445,0.026249999180436134,-0.29750001430511475,-0.5600000023841858,-0.12381766736507416,-0.5527856349945068,-0.5527856349945068,0.0,0.0,0.0,0.0,0.0,0.0,0.30537012219429016,0.9233450889587402,244.562744140625,-1.646555781364441,0.0161784365773201,0.07568967342376709,0.8454107642173767,-0.0020505301654338837,0.008235394023358822,0.5340410470962524,0.0,1
1969-12-31T19:36:13.132000,132,2023,1,12,14,36,11,15,0.0,False,0,0,0,0,0,0,0,0,0,0,-1.5720844268798828,0.05503492057323456,9.7938232421875,-1.7625495195388794,0.06602691859006882,9.86786937713623,0.04374999925494194,-0.24500000476837158,-0.6299999952316284,-0.10787781327962875,-0.5375868678092957,-0.5375868678092957,0.0,0.0,0.0,0.0,0.0,0.0,0.30570653080940247,0.9695175886154175,244.55947875976562,-1.5965590476989746,0.013692334294319153,0.059456177055835724,0.8454237580299377,-0.0022630011662840843,0.008577660657465458,0.5340142846107483,0.0,1
1969-12-31T19:36:13.143000,143,2023,1,12,14,36,11,15,0.0,False,0,0,0,0,0,0,0,0,0,0,2.6967110633850098,0.035892341285943985,9.860822677612305,-0.9554346799850464,0.060572635382413864,9.866594314575195,0.07874999940395355,-0.5774999856948853,-0.7087500095367432,-0.09012486040592194,-0.5515005588531494,-0.5515005588531494,0.0,0.0,0.0,0.0,0.0,0.0,0.30597424507141113,0.9926187992095947,244.55615234375,-0.7854894399642944,0.008192594163119793,0.05824778974056244,0.8454382419586182,-0.002368435263633728,0.008749406784772873,0.533988356590271,0.0,1
1969-12-31T19:36:13.154000,154,2023,1,12,14,36,11,15,0.0,False,0,0,0,0,0,0,0,0,0,0,4.505684852600098,0.09092725813388824,9.9350004196167,0.033014118671417236,0.06606674194335938,9.878975868225098,-0.026249999180436134,-0.7175000309944153,-0.5862500071525574,-0.08404877036809921,-0.5647335052490234,-0.5647335052490234,0.0,0.0,0.0,0.0,0.0,0.0,0.30642783641815186,0.9869425892829895,244.552734375,0.20198766887187958,0.013608943670988083,0.0706147775053978,0.845454216003418,-0.0023383779916912317,0.008709714747965336,0.5339635014533997,0.0,1
1969-12-31T19:36:13.165000,165,2023,1,12,14,36,11,15,0.0,False,0,0,0,0,0,0,0,0,0,0,0.5312066078186035,-0.035892341285943985,9.997213363647461,0.12318569421768188,0.04761240631341934,9.900376319885254,-0.14875000715255737,-0.6650000214576721,-0.49000000953674316,-0.09020347148180008,-0.5664165616035461,-0.5664165616035461,0.0,0.0,0.0,0.0,0.0,0.0,0.30631062388420105,0.9786684513092041,244.54934692382812,0.29074275493621826,-0.00482543371617794,0.0919894278049469,0.845470666885376,-0.0023004268296062946,0.008648189716041088,0.5339388847351074,0.0,1
1969-12-31T19:36:13.176000,176,2023,1,12,14,36,11,15,0.0,False,0,0,0,0,0,0,0,0,0,0,-0.17946171760559082,0.04307080805301666,9.863214492797852,0.06840728223323822,0.046790387481451035,9.89365005493164,-0.09624999761581421,-0.5774999856948853,-0.5512499809265137,-0.090778648853302,-0.5661473870277405,-0.5661473870277405,0.0,0.0,0.0,0.0,0.0,0.0,0.30616825819015503,0.9720092415809631,244.54591369628906,0.23482432961463928,-0.005623186007142067,0.08524391055107117,0.8454868793487549,-0.002270190045237541,0.00859846267849207,0.5339140892028809,0.0,1
1969-12-31T19:36:13.187000,187,2023,1,12,14,36,11,15,0.0,False,0,0,0,0,0,0,0,0,0,0,-0.18903300166130066,0.05503492057323456,9.846465110778809,0.021811246871948242,0.04828262701630592,9.885109901428223,-0.07000000029802322,-0.5249999761581421,-0.45499998331069946,-0.08880208432674408,-0.5561084747314453,-0.5561084747314453,0.0,0.0,0.0,0.0,0.0,0.0,0.30608177185058594,0.9667731523513794,244.54254150390625,0.1873319149017334,-0.004116241820156574,0.07668943703174591,0.8455027341842651,-0.002246177988126874,0.008559494279325008,0.5338895320892334,0.0,1
1969-12-31T19:36:13.198000,198,2023,1,12,14,36,11,15,0.0,False,0,0,0,0,0,0,0,0,0,0,-0.1339980810880661,0.08853443711996078,9.89432144165039,-0.006389845162630081,0.05556810274720192,9.8867769241333,-0.05249999836087227,-0.5950000286102295,-0.42875000834465027,-0.08534885197877884,-0.5502769351005554,-0.5502769351005554,0.0,0.0,0.0,0.0,0.0,0.0,0.3062250316143036,0.9624027013778687,244.53921508789062,0.1583826243877411,0.003144657239317894,0.07834266126155853,0.8455185890197754,-0.0022245096042752266,0.008527979254722595,0.5338652729988098,0.0,1
1969-12-31T19:36:13.209000,209,2023,1,12,14,36,11,15,0.0,False,0,0,0,0,0,0,0,0,0,0,6.850651264190674,0.07178468257188797,10.06421184539795,1.2347171306610107,0.05850326269865036,9.918891906738281,-0.20999999344348907,-0.6912499666213989,-0.38499999046325684,-0.09720627963542938,-0.5486748814582825,-0.5486748814582825,0.0,0.0,0.0,0.0,0.0,0.0,0.30638808012008667,0.9224715828895569,244.535888671875,1.3926537036895752,0.006051299162209034,0.11034678667783737,0.8455358743667603,-0.002037020167335868,0.008234171196818352,0.5338429808616638,0.0,1
1969-12-31T19:36:13.221000,221,2023,1,12,14,36,11,15,0.0,False,0,0,0,0,0,0,0,0,0,0,1.8281164169311523,0.004785645287483931,9.741181373596191,1.342120885848999,0.04878050833940506,9.886726379394531,-0.367499977350235,-0.7875000238418579,-0.29750001430511475,-0.12291794270277023,-0.5478608012199402,-0.5478608012199402,0.0,0.0,0.0,0.0,0.0,0.0,0.30615028738975525,0.8795371651649475,244.5325927734375,1.4927071332931519,-0.0036313573364168406,0.07806471735239029,0.8455533385276794,-0.001838513184338808,0.00791632104665041,0.5338209867477417,0.0,1
1969-12-31T19:36:13.232000,232,2023,1,12,14,36,11,15,0.0,False,0,0,0,0,0,0,0,0,0,0,-4.35254430770874,0.10049854964017868,9.755537986755371,0.31140100955963135,0.05814134329557419,9.862981796264648,-0.22749999165534973,-0.9099999666213989,-0.35875001549720764,-0.1328662931919098,-0.5592664480209351,-0.5592664480209351,0.0,0.0,0.0,0.0,0.0,0.0,0.3061390221118927,0.8661911487579346,244.52920532226562,0.4597024619579315,0.005731217563152313,0.054285455495119095,0.8455696105957031,-0.0017761894268915057,0.007817843928933144,0.5337968468666077,0.0,1
1969-12-31T19:36:13.243000,243,2023,1,12,14,36,11,15,0.0,False,0,0,0,0,0,0,0,0,0,0,-5.929414749145508,0.10289137810468674,9.942177772521973,-0.8181707859039307,0.06624098867177963,9.87731647491455,-0.2537499964237213,-0.8399999737739563,-0.4024999737739563,-0.1443653404712677,-0.5674380660057068,-0.5674380660057068,0.0,0.0,0.0,0.0,0.0,0.0,0.3063012957572937,0.8855966329574585,244.5258026123047,-0.6665471196174622,0.013803353533148766,0.06867107003927231,0.8455846309661865,-0.0018651577411219478,0.007961845956742764,0.5337706208229065,0.0,1
1969-12-31T19:36:13.254000,254,2023,1,12,14,36,11,15,0.0,False,0,0,0,0,0,0,0,0,0,0,-0.1411765217781067,-0.009571290574967861,9.93978500366211,-0.695636510848999,0.05251915752887726,9.888623237609863,-0.1574999988079071,-0.6299999952316284,-0.5074999928474426,-0.14561477303504944,-0.567611038684845,-0.567611038684845,0.0,0.0,0.0,0.0,0.0,0.0,0.30605703592300415,0.9013789892196655,244.52239990234375,-0.5413109660148621,0.00012355395301710814,0.08001957833766937,0.8455998301506042,-0.0019402391044422984,0.008077223785221577,0.5337445735931396,0.0,1
1969-12-31T19:36:13.265000,265,2023,1,12,14,36,11,15,0.0,False,0,0,0,0,0,0,0,0,0,0,-0.24406792223453522,0.06699904054403305,9.851250648498535,-0.6139037609100342,0.05513998121023178,9.881858825683594,-0.09624999761581421,-0.6475000381469727,-0.4987499713897705,-0.14091895520687103,-0.5683379769325256,-0.5683379769325256,0.0,0.0,0.0,0.0,0.0,0.0,0.3059135973453522,0.9147564768791199,244.51898193359375,-0.45728805661201477,0.0027691388968378305,0.07329128682613373,0.8456151485443115,-0.002003368455916643,0.008175329305231571,0.5337185859680176,0.0,1
1969-12-31T19:36:13.285000,285,2023,1,12,14,36,11,15,0.0,False,0,0,0,0,0,0,0,0,0,0,-0.19621145725250244,0.0406779870390892,9.853643417358398,-0.5383025407791138,0.05252239853143692,9.876751899719238,-0.14875000715255737,-0.6825000047683716,-0.45499998331069946,-0.14166387915611267,-0.568392276763916,-0.568392276763916,0.0,0.0,0.0,0.0,0.0,0.0,0.3056912124156952,0.9259091019630432,244.51553344726562,-0.37977755069732666,0.00018977600848302245,0.06821539252996445,0.8456305265426636,-0.0020567101892083883,0.00825665332376957,0.5336926579475403,0.0,1
1969-12-31T19:36:13.296000,296,2023,1,12,14,36,11,15,0.0,False,0,0,0,0,0,0,0,0,0,0,-5.630311965942383,0.035892341285943985,10.05224895477295,-1.4599432945251465,0.04951240122318268,9.908516883850098,-0.03500000014901161,-0.5600000023841858,-0.5337499976158142,-0.13151748478412628,-0.5655555129051208,-0.5655555129051208,0.0,0.0,0.0,0.0,0.0,0.0,0.30542856454849243,0.9632830619812012,244.51211547851562,-1.2950201034545898,-0.0027746884152293205,0.10008585453033447,0.8456445932388306,-0.0022324714809656143,0.008531292900443077,0.5336652994155884,0.0,1
1969-12-31T19:36:13.307000,307,2023,1,12,14,36,11,15,0.0,False,0,0,0,0,0,0,0,0,0,0,-5.01296329498291,0.0933200865983963,9.774681091308594,-2.1030309200286865,0.057441480457782745,9.884292602539062,0.09624999761581421,-0.22749999165534973,-0.6562499403953552,-0.10985112935304642,-0.5492500066757202,-0.5492500066757202,0.0,0.0,0.0,0.0,0.0,0.0,0.3055036962032318,1.0185444355010986,244.50880432128906,-1.9286473989486694,0.0051424019038677216,0.07602474838495255,0.8456572890281677,-0.002489035250619054,0.008939513936638832,0.5336374640464783,0.0,1
1969-12-31T19:36:13.318000,318,2023,1,12,14,36,11,15,0.0,False,0,0,0,0,0,0,0,0,0,0,0.5383851528167725,0.014356935396790504,9.791430473327637,-1.624941349029541,0.04964328557252884,9.867485046386719,0.10499999672174454,-0.27125000953674316,-0.6737499833106995,-0.08941344171762466,-0.5391316413879395,-0.5391316413879395,0.0,0.0,0.0,0.0,0.0,0.0,0.30545923113822937,1.0605369806289673,244.50552368164062,-1.4433691501617432,-0.0026474883779883385,0.059347789734601974,0.845670223236084,-0.0026846700347959995,0.009249272756278515,0.5336107015609741,0.0,1
1969-12-31T19:36:13.329000,329,2023,1,12,14,36,11,15,0.0,False,0,0,0,0,0,0,0,0,0,0,2.5986053943634033,0.05982056260108948,9.89671516418457,-0.860490083694458,0.051485348492860794,9.87277603149414,0.08749999850988388,-0.5162500143051147,-0.6562499403953552,-0.07258456945419312,-0.5453435182571411,-0.5453435182571411,0.0,0.0,0.0,0.0,0.0,0.0,0.30554836988449097,1.0806000232696533,244.50222778320312,-0.6754834055900574,-0.000820350309368223,0.06470295041799545,0.8456844687461853,-0.0027771748136729,0.00939782615751028,0.5335850715637207,0.0,1
1969-12-31T19:36:13.340000,340,2023,1,12,14,36,11,15,0.0,False,0,0,0,0,0,0,0,0,0,0,4.871786594390869,0.04307080805301666,10.006784439086914,0.17703747749328613,0.04996233806014061,9.8970308303833,-0.08749999850988388,-0.7175000309944153,-0.6299999952316284,-0.07400339841842651,-0.5622720718383789,-0.5622720718383789,0.0,0.0,0.0,0.0,0.0,0.0,0.30558016896247864,1.0704517364501953,244.49884033203125,0.36030691862106323,-0.0023489659652113914,0.08892492949962616,0.8457008600234985,-0.0027294058818370104,0.009323162026703358,0.5335606932640076,0.0,1
1969-12-31T19:36:13.351000,351,2023,1,12,14,36,11,15,0.0,False,0,0,0,0,0,0,0,0,0,0,-0.2392822504043579,0.0406779870390892,9.77946662902832,0.10168466717004776,0.048281893134117126,9.875752449035645,-0.07874999940395355,-0.5074999928474426,-0.4724999964237213,-0.07445491850376129,-0.5527440309524536,-0.5527440309524536,0.0,0.0,0.0,0.0,0.0,0.0,0.3055649995803833,1.062562108039856,244.4954833984375,0.2836035192012787,-0.00402695219963789,0.0676221251487732,0.8457168340682983,-0.0026925080455839634,0.009264945052564144,0.533536434173584,0.0,1
1969-12-31T19:36:13.362000,362,2023,1,12,14,36,11,15,0.0,False,0,0,0,0,0,0,0,0,0,0,-0.11006984114646912,0.06939186155796051,9.891928672790527,0.0633576363325119,0.052102744579315186,9.878680229187012,-0.04374999925494194,-0.6037499904632568,-0.5074999928474426,-0.07153411954641342,-0.5531238317489624,-0.5531238317489624,0.0,0.0,0.0,0.0,0.0,0.0,0.3056754171848297,1.0558114051818848,244.49215698242188,0.24412082135677338,-0.00022511214774567634,0.0705270990729332,0.8457329273223877,-0.0026599899865686893,0.00921571534126997,0.5335122346878052,0.0,1
1969-12-31T19:36:13.373000,373,2023,1,12,14,36,11,15,0.0,False,0,0,0,0,0,0,0,0,0,0,-0.1698903888463974,0.035892341285943985,9.884750366210938,0.021140336990356445,0.049168702214956284,9.879778861999512,-0.05249999836087227,-0.5862500071525574,-0.45499998331069946,-0.06972350180149078,-0.5488393306732178,-0.5488393306732178,0.0,0.0,0.0,0.0,0.0,0.0,0.305709570646286,1.0503305196762085,244.4888153076172,0.2009652704000473,-0.0031650904566049576,0.07160922884941101,0.8457486629486084,-0.002633951837196946,0.009175500832498074,0.5334879755973816,0.0,1
1969-12-31T19:36:13.384000,384,2023,1,12,14,36,11,15,0.0,False,0,0,0,0,0,0,0,0,0,0,1.5744773149490356,0.05503492057323456,9.906286239624023,0.3022903800010681,0.050230473279953,9.884576797485352,-0.08749999850988388,-0.5862500071525574,-0.4724999964237213,-0.07141448557376862,-0.5462732315063477,-0.5462732315063477,0.0,0.0,0.0,0.0,0.0,0.0,0.30576589703559875,1.0367289781570435,244.48550415039062,0.4797869026660919,-0.00211319443769753,0.0763648971915245,0.8457648158073425,-0.0025699457619339228,0.009075453504920006,0.5334643721580505,0.0,1
1969-12-31T19:36:13.395000,395,2023,1,12,14,36,11,15,0.0,False,0,0,0,0,0,0,0,0,0,0,5.190032482147217,0.07896315306425095,9.891928672790527,1.1869592666625977,0.05543101578950882,9.885907173156738,-0.2537499964237213,-0.6475000381469727,-0.22749999165534973,-0.08875913172960281,-0.531933069229126,-0.531933069229126,0.0,0.0,0.0,0.0,0.0,0.0,0.30588802695274353,0.997853696346283,244.48226928710938,1.3578007221221924,0.0030658058822155,0.07757771015167236,0.8457819223403931,-0.0023878016509115696,0.008789168670773506,0.5334427952766418,0.0,1
1969-12-31T19:36:13.406000,406,2023,1,12,14,36,11,15,0.0,False,0,0,0,0,0,0,0,0,0,0,-1.4524433612823486,0.038285162299871445,9.719645500183105,0.7092341184616089,0.052327658981084824,9.855813980102539,-0.33250001072883606,-0.9012499451637268,-0.2800000011920929,-0.11194495856761932,-0.5396707653999329,-0.5396707653999329,0.0,0.0,0.0,0.0,0.0,0.0,0.3058101534843445,0.9726577997207642,244.47898864746094,0.8757621645927429,-2.4610526452306658e-05,0.047409869730472565,0.8457984924316406,-0.0022708293981850147,0.008602906949818134,0.5334201455116272,0.0,1
1969-12-31T19:36:13.417000,417,2023,1,12,14,36,11,15,0.0,False,0,0,0,0,0,0,0,0,0,0,-5.826523303985596,0.09092725813388824,9.832108497619629,-0.47372138500213623,0.05931408703327179,9.851523399353027,-0.2800000011920929,-0.9362499713897705,-0.3499999940395355,-0.12793117761611938,-0.5533096790313721,-0.5533096790313721,0.0,0.0,0.0,0.0,0.0,0.0,0.3058558702468872,0.9818410873413086,244.47564697265625,-0.3056211769580841,0.006954132579267025,0.04314624145627022,0.8458135724067688,-0.002312991302460432,0.008670968934893608,0.5333949327468872,0.0,1
1969-12-31T19:36:13.428000,428,2023,1,12,14,36,11,15,0.0,False,0,0,0,0,0,0,0,0,0,0,-5.182854175567627,0.05503492057323456,9.980463027954102,-1.3260624408721924,0.05853956937789917,9.874860763549805,-0.20124998688697815,-0.699999988079071,-0.41999998688697815,-0.1349056214094162,-0.5541917085647583,-0.5541917085647583,0.0,0.0,0.0,0.0,0.0,0.0,0.3058375418186188,1.0154258012771606,244.4722900390625,-1.1522128582000732,0.006183289457112551,0.06658405065536499,0.8458274006843567,-0.0024692064616829157,0.008918842300772667,0.5333681702613831,0.0,1
1969-12-31T19:36:13.439000,439,2023,1,12,14,36,11,15,0.0,False,0,0,0,0,0,0,0,0,0,0,-0.12921243906021118,-0.01196411345154047,9.93260669708252,-1.1094355583190918,0.045778580009937286,9.885313034057617,-0.07874999940395355,-0.6387500166893005,-0.5862500071525574,-0.1295638233423233,-0.5618788003921509,-0.5618788003921509,0.0,0.0,0.0,0.0,0.0,0.0,0.30547448992729187,1.0426567792892456,244.46890258789062,-0.9309242963790894,-0.00651509827002883,0.07711958140134811,0.8458417057991028,-0.0025983748491853476,0.009118223562836647,0.5333415269851685,0.0,1
1969-12-31T19:36:13.450000,450,2023,1,12,14,36,11,15,0.0,False,0,0,0,0,0,0,0,0,0,0,-0.24885354936122894,0.09092725813388824,9.92542839050293,-0.9536724090576172,0.05395037680864334,9.892573356628418,-0.04374999925494194,-0.6650000214576721,-0.4987499713897705,-0.12140079587697983,-0.5645149946212769,-0.5645149946212769,0.0,0.0,0.0,0.0,0.0,0.0,0.3053865432739258,1.0653038024902344,244.46551513671875,-0.7712842226028442,0.0016721325227990746,0.08445093035697937,0.8458563089370728,-0.002704162383452058,0.00928505603224039,0.5333150029182434,0.0,1
1969-12-31T19:36:13.461000,461,2023,1,12,14,36,11,15,0.0,False,0,0,0,0,0,0,0,0,0,0,-0.21296121180057526,0.08853443711996078,9.865608215332031,-0.8196055889129639,0.060210004448890686,9.88769245147705,-0.16625000536441803,-0.7087500095367432,-0.4987499713897705,-0.12566706538200378,-0.56968754529953,-0.56968754529953,0.0,0.0,0.0,0.0,0.0,0.0,0.30545783042907715,1.0840092897415161,244.46206665039062,-0.6340152025222778,0.007919875904917717,0.07963073998689651,0.8458711504936218,-0.0027904189191758633,0.009423543699085712,0.5332884788513184,0.0,1
1969-12-31T19:36:13.472000,472,2023,1,12,14,36,11,15,0.0,False,0,0,0,0,0,0,0,0,0,0,-0.8135597109794617,0.062213387340307236,9.903892517089844,-0.8185113072395325,0.06057261303067207,9.890625,-0.07000000029802322,-0.612500011920929,-0.49000000953674316,-0.1203717440366745,-0.5672568082809448,-0.5672568082809448,0.0,0.0,0.0,0.0,0.0,0.0,0.305564820766449,1.1026232242584229,244.45867919921875,-0.6297345757484436,0.008264497853815556,0.08262282609939575,0.8458860516548157,-0.0028759767301380634,0.00956152193248272,0.5332621932029724,0.0,1
1969-12-31T19:36:13.483000,483,2023,1,12,14,36,11,15,0.0,False,0,0,0,0,0,0,0,0,0,0,-7.3052873611450195,0.09092725813388824,9.882357597351074,-1.9926011562347412,0.06606672704219818,9.889128684997559,0.03500000014901161,-0.3149999976158142,-0.5425000190734863,-0.1055920273065567,-0.5489966869354248,-0.5489966869354248,0.0,0.0,0.0,0.0,0.0,0.0,0.30589792132377625,1.1543524265289307,244.45535278320312,-1.794969081878662,0.013702512718737125,0.08130240440368652,0.8458982706069946,-0.003113978775218129,0.009945006109774113,0.5332342386245728,0.0,1
1969-12-31T19:36:13.494000,494,2023,1,12,14,36,11,15,0.0,False,0,0,0,0,0,0,0,0,0,0,-1.9070796966552734,0.06460621953010559,9.80817985534668,-1.9771219491958618,0.06580238044261932,9.87447738647461,0.11374999582767487,-0.27125000953674316,-0.6825000047683716,-0.08472713828086853,-0.5394884943962097,-0.5394884943962097,0.0,0.0,0.0,0.0,0.0,0.0,0.30632761120796204,1.2056068181991577,244.45208740234375,-1.7707161903381348,0.01336557138711214,0.06683219224214554,0.8459102511405945,-0.0033490380737930536,0.010325442999601364,0.533206582069397,0.0,1
1969-12-31T19:36:13.505000,505,2023,1,12,14,36,11,15,0.0,False,0,0,0,0,0,0,0,0,0,0,1.710868239402771,0.02392822690308094,9.791430473327637,-1.3096051216125488,0.058223266154527664,9.85944652557373,0.03500000014901161,-0.4375,-0.6650000214576721,-0.0733381062746048,-0.5410390496253967,-0.5410390496253967,0.0,0.0,0.0,0.0,0.0,0.0,0.3065985441207886,1.2380661964416504,244.4488067626953,-1.0976430177688599,0.005740715656429529,0.05191950872540474,0.8459234237670898,-0.0034977870527654886,0.01056641060858965,0.5331801176071167,0.0,1
1969-12-31T19:36:13.516000,516,2023,1,12,14,36,11,15,0.0,False,0,0,0,0,0,0,0,0,0,0,4.378865718841553,0.07896315306425095,9.9350004196167,-0.2800062894821167,0.06197713315486908,9.87312126159668,0.07874999940395355,-0.6650000214576721,-0.6825000047683716,-0.05887074023485184,-0.558535099029541,-0.558535099029541,0.0,0.0,0.0,0.0,0.0,0.0,0.3070457875728607,1.2406373023986816,244.4454345703125,-0.06760400533676147,0.009418080560863018,0.06560433655977249,0.8459389209747314,-0.0035061391536146402,0.010587574914097786,0.5331550240516663,0.0,1
1969-12-31T19:36:13.527000,527,2023,1,12,14,36,11,15,0.0,False,0,0,0,0,0,0,0,0,0,0,1.0217353105545044,-0.062213387340307236,10.006784439086914,-0.0443943589925766,0.039498962461948395,9.897314071655273,-0.20999999344348907,-0.6650000214576721,-0.42875000834465027,-0.07324689626693726,-0.5569978952407837,-0.5569978952407837,0.0,0.0,0.0,0.0,0.0,0.0,0.30676352977752686,1.2363591194152832,244.4420623779297,0.1672755777835846,-0.013011857867240906,0.08978094905614853,0.8459548950195312,-0.0034880051389336586,0.010554782114923,0.5331304669380188,0.0,1
1969-12-31T19:36:13.538000,538,2023,1,12,14,36,11,15,0.0,False,0,0,0,0,0,0,0,0,0,0,-0.12442677468061447,0.06699904054403305,9.822537422180176,-0.058880023658275604,0.044476404786109924,9.883779525756836,-0.05249999836087227,-0.5950000286102295,-0.5074999928474426,-0.07127334922552109,-0.5562401413917542,-0.5562401413917542,0.0,0.0,0.0,0.0,0.0,0.0,0.3066383898258209,1.2325209379196167,244.43870544433594,0.15213288366794586,-0.008013068698346615,0.07623206079006195,0.8459708094596863,-0.0034707607701420784,0.010525966994464397,0.5331059098243713,0.0,1
1969-12-31T19:36:13.549000,549,2023,1,12,14,36,11,15,0.0,False,0,0,0,0,0,0,0,0,0,0,-0.1459621787071228,0.06699904054403305,9.844072341918945,-0.07464167475700378,0.048552945256233215,9.876592636108398,-0.08749999850988388,-0.5687500238418579,-0.5162500143051147,-0.07281690835952759,-0.5544286966323853,-0.5544286966323853,0.0,0.0,0.0,0.0,0.0,0.0,0.3066256642341614,1.2291630506515503,244.4353485107422,0.135796457529068,-0.003934410400688648,0.0690329298377037,0.8459866046905518,-0.0034549254924058914,0.01050122082233429,0.5330814123153687,0.0,1
1969-12-31T19:36:13.566000,566,2023,1,12,14,36,11,15,0.0,False,0,0,0,0,0,0,0,0,0,0,1.3304094076156616,0.06699904054403305,9.961320877075195,0.17966902256011963,0.051891639828681946,9.891928672790527,0.017500000074505806,-0.49000000953674316,-0.4637500047683716,-0.06422552466392517,-0.5442043542861938,-0.5442043542861938,0.0,0.0,0.0,0.0,0.0,0.0,0.3067517578601837,1.2184911966323853,244.43203735351562,0.38828036189079285,-0.0006175125599838793,0.08433046191930771,0.8460026383399963,-0.0034040433820337057,0.01042312104254961,0.5330577492713928,0.0,1
1969-12-31T19:36:13.577000,577,2023,1,12,14,36,11,15,0.0,False,0,0,0,0,0,0,0,0,0,0,5.357529640197754,0.05024927482008934,9.903892517089844,1.1168487071990967,0.05159437656402588,9.894094467163086,-0.24500000476837158,-0.6299999952316284,-0.3062500059604645,-0.08142167329788208,-0.534174382686615,-0.534174382686615,0.0,0.0,0.0,0.0,0.0,0.0,0.30678504705429077,1.1809790134429932,244.42880249023438,1.3190386295318604,-0.0009211936849169433,0.08636137843132019,0.8460202217102051,-0.0032289924565702677,0.010146429762244225,0.5330363512039185,0.0,1
1969-12-31T19:36:13.588000,588,2023,1,12,14,36,11,15,0.0,False,0,0,0,0,0,0,0,0,0,0,-1.270588755607605,0.0526420958340168,9.750751495361328,0.6847286224365234,0.05178401246666908,9.868149757385254,-0.2800000011920929,-0.9099999666213989,-0.33250001072883606,-0.10031141340732574,-0.5456540584564209,-0.5456540584564209,0.0,0.0,0.0,0.0,0.0,0.0,0.3067334294319153,1.1558336019515991,244.42547607421875,0.8826141953468323,-0.0007231924100778997,0.06032935902476311,0.8460371494293213,-0.0031121086794883013,0.009960639290511608,0.5330135822296143,0.0,1
1969-12-31T19:36:13.599000,599,2023,1,12,14,36,11,15,0.0,False,0,0,0,0,0,0,0,0,0,0,-5.783452033996582,0.08614161610603333,9.824929237365723,-0.48599565029144287,0.05800265073776245,9.860326766967773,-0.2800000011920929,-0.9099999666213989,-0.367499977350235,-0.1174042671918869,-0.5579274296760559,-0.5579274296760559,0.0,0.0,0.0,0.0,0.0,0.0,0.3067777752876282,1.1646835803985596,244.422119140625,-0.2865951657295227,0.0054880245588719845,0.05253602936863899,0.846052348613739,-0.003152654506266117,0.010026274248957634,0.5329881906509399,0.0,1
1969-12-31T19:36:13.610000,610,2023,1,12,14,36,11,15,0.0,False,0,0,0,0,0,0,0,0,0,0,-5.185246467590332,0.07417750358581543,9.963713645935059,-1.336548089981079,0.06093025952577591,9.879039764404297,-0.19249999523162842,-0.7875000238418579,-0.4112500250339508,-0.12454774230718613,-0.5633916854858398,-0.5633916854858398,0.0,0.0,0.0,0.0,0.0,0.0,0.30686450004577637,1.1978551149368286,244.41873168945312,-1.1314692497253418,0.008401402272284031,0.07136683911085129,0.8460659384727478,-0.0033060128334909678,0.010271682403981686,0.5329608917236328,0.0,1
1969-12-31T19:36:13.621000,621,2023,1,12,14,36,11,15,0.0,False,0,0,0,0,0,0,0,0,0,0,-0.1818545162677765,-0.0406779870390892,9.93978500366211,-1.1275514364242554,0.04253942519426346,9.890034675598145,-0.16625000536441803,-0.6650000214576721,-0.5425000190734863,-0.12851466238498688,-0.5687123537063599,-0.5687123537063599,0.0,0.0,0.0,0.0,0.0,0.0,0.3063974976539612,1.2249042987823486,244.41529846191406,-0.9178422689437866,-0.009908954612910748,0.0824597179889679,0.8460800647735596,-0.003434965619817376,0.01046932116150856,0.5329337120056152,0.0,1
1969-12-31T19:36:13.632000,632,2023,1,12,14,36,11,15,0.0,False,0,0,0,0,0,0,0,0,0,0,-0.1866401731967926,0.09092725813388824,9.908679008483887,-0.957248866558075,0.05129750072956085,9.893409729003906,-0.08749999850988388,-0.699999988079071,-0.4724999964237213,-0.12461314350366592,-0.5710244178771973,-0.5710244178771973,0.0,0.0,0.0,0.0,0.0,0.0,0.3062019944190979,1.2469691038131714,244.41188049316406,-0.743762731552124,-0.0011169805657118559,0.08591476827859879,0.8460946679115295,-0.0035387168172746897,0.010631426237523556,0.5329068899154663,0.0,1
1969-12-31T19:36:13.643000,643,2023,1,12,14,36,11,15,0.0,False,0,0,0,0,0,0,0,0,0,0,-0.20817558467388153,0.06939186155796051,9.860822677612305,-0.8216685056686401,0.05457253381609917,9.887511253356934,-0.14000000059604645,-0.6562499403953552,-0.4724999964237213,-0.1260768175125122,-0.5701478123664856,-0.5701478123664856,0.0,0.0,0.0,0.0,0.0,0.0,0.3060944676399231,1.2650829553604126,244.408447265625,-0.6050817370414734,0.002176819369196892,0.08008478581905365,0.8461093306541443,-0.003623435040935874,0.010764775797724724,0.5328802466392517,0.0,1
1969-12-31T19:36:13.654000,654,2023,1,12,14,36,11,15,0.0,False,0,0,0,0,0,0,0,0,0,0,-0.7154539823532104,0.07178468257188797,9.903892517089844,-0.8024439215660095,0.05768788978457451,9.89047622680664,-0.10499999672174454,-0.6387500166893005,-0.5249999761581421,-0.1240718886256218,-0.5716938972473145,-0.5716938972473145,0.0,0.0,0.0,0.0,0.0,0.0,0.3060859441757202,1.2825648784637451,244.40499877929688,-0.5828647017478943,0.005293979309499264,0.08311673253774643,0.8461240530014038,-0.00370447407476604,0.010893924161791801,0.5328536033630371,0.0,1
1969-12-31T19:36:13.665000,665,2023,1,12,14,36,11,15,0.0,False,0,0,0,0,0,0,0,0,0,0,-7.300501823425293,0.0813559740781784,9.889535903930664,-1.9785759449005127,0.0619717538356781,9.89030647277832,0.05249999836087227,-0.32375001907348633,-0.5512499809265137,-0.10727550834417343,-0.5540024042129517,-0.5540024042129517,0.0,0.0,0.0,0.0,0.0,0.0,0.30628150701522827,1.3332462310791016,244.4016571044922,-1.750321388244629,0.009545434266328812,0.08314550668001175,0.8461359143257141,-0.0039383964613080025,0.011269159615039825,0.532825231552124,0.0,1
1969-12-31T19:36:13.676000,676,2023,1,12,14,36,11,15,0.0,False,0,0,0,0,0,0,0,0,0,0,-2.076970100402832,0.07657032459974289,9.803394317626953,-1.996385097503662,0.06461405754089355,9.8745756149292,0.13124999403953552,-0.20124998688697815,-0.6825000047683716,-0.08458579331636429,-0.5392200350761414,-0.5392200350761414,0.0,0.0,0.0,0.0,0.0,0.0,0.3066664934158325,1.3844021558761597,244.39837646484375,-1.7593741416931152,0.012122949585318565,0.06762261688709259,0.8461472988128662,-0.004173110704869032,0.011648789048194885,0.5327972173690796,0.0,1
1969-12-31T19:36:13.687000,687,2023,1,12,14,36,11,15,0.0,False,0,0,0,0,0,0,0,0,0,0,1.6462620496749878,0.0526420958340168,9.853643417358398,-1.3370752334594727,0.062447164207696915,9.870786666870117,0.12250000238418579,-0.3762499988079071,-0.6562499403953552,-0.06488677859306335,-0.5361917614936829,-0.5361917614936829,0.0,0.0,0.0,0.0,0.0,0.0,0.3070886731147766,1.416985273361206,244.3951416015625,-1.094487190246582,0.009884531609714031,0.06396997720003128,0.8461599349975586,-0.004321168642491102,0.011891460046172142,0.5327706933021545,0.0,1
1969-12-31T19:36:13.698000,698,2023,1,12,14,36,11,15,0.0,False,0,0,0,0,0,0,0,0,0,0,4.328616142272949,0.11724831163883209,9.966106414794922,-0.3115994930267334,0.07236602902412415,9.888039588928223,-0.008750000037252903,-0.7087500095367432,-0.6037499904632568,-0.05954677239060402,-0.5520197153091431,-0.5520197153091431,0.0,0.0,0.0,0.0,0.0,0.0,0.3078197240829468,1.4198490381240845,244.39181518554688,-0.06852131336927414,0.019678331911563873,0.08123575150966644,0.8461751937866211,-0.004328740295022726,0.011916129849851131,0.5327458381652832,0.0,1
1969-12-31T19:36:13.709000,709,2023,1,12,14,36,11,15,0.0,False,0,0,0,0,0,0,0,0,0,0,1.31365966796875,-0.0406779870390892,9.987641334533691,-0.017431706190109253,0.051905348896980286,9.90606689453125,-0.23624999821186066,-0.6650000214576721,-0.4987499713897705,-0.07635565102100372,-0.555955708026886,-0.555955708026886,0.0,0.0,0.0,0.0,0.0,0.0,0.307867169380188,1.4141491651535034,244.38844299316406,0.224670872092247,-0.0007906027603894472,0.09923961013555527,0.8461912274360657,-0.004301539622247219,0.011874389834702015,0.5327214002609253,0.0,1
1969-12-31T19:36:13.720000,720,2023,1,12,14,36,11,15,0.0,False,0,0,0,0,0,0,0,0,0,0,-0.12203396111726761,0.08853443711996078,9.81775188446045,-0.03636445105075836,0.058535121381282806,9.890082359313965,-0.04374999925494194,-0.5950000286102295,-0.5425000190734863,-0.0732540413737297,-0.5576424598693848,-0.5576424598693848,0.0,0.0,0.0,0.0,0.0,0.0,0.30812495946884155,1.4090101718902588,244.38510131835938,0.2048584669828415,0.005794933065772057,0.08323229849338531,0.8462073802947998,-0.004275394603610039,0.011837764643132687,0.5326970219612122,0.0,1
1969-12-31T19:36:13.730000,730,2023,1,12,14,36,11,15,0.0,False,0,0,0,0,0,0,0,0,0,0,-0.17228323221206665,0.04785645380616188,9.846465110778809,-0.0609654039144516,0.05660231038928032,9.882187843322754,-0.17499999701976776,-0.5425000190734863,-0.5162500143051147,-0.08293261379003525,-0.553915798664093,-0.553915798664093,0.0,0.0,0.0,0.0,0.0,0.0,0.3082790970802307,1.4046205282211304,244.38174438476562,0.17950618267059326,0.003835635259747505,0.07532063871622086,0.8462231755256653,-0.004253503866493702,0.011806191876530647,0.5326725840568542,0.0,1
1969-12-31T19:36:13.741000,741,2023,1,12,14,36,11,15,0.0,False,0,0,0,0,0,0,0,0,0,0,-0.1698903888463974,-0.019142581149935722,9.906286239624023,-0.08068054914474487,0.04289267957210541,9.886549949645996,-0.1574999988079071,-0.5950000286102295,-0.49000000953674316,-0.09002582728862762,-0.5524107813835144,-0.5524107813835144,0.0,0.0,0.0,0.0,0.0,0.0,0.3079991042613983,1.4008244276046753,244.37840270996094,0.15914122760295868,-0.00982614979147911,0.07966507971286774,0.8462391495704651,-0.0042375787161290646,0.011776980012655258,0.5326482653617859,0.0,1
1969-12-31T19:36:13.752000,752,2023,1,12,14,36,11,15,0.0,False,0,0,0,0,0,0,0,0,0,0,5.735595703125,0.05503492057323456,9.920642852783203,0.9720506072044373,0.04509039595723152,9.892720222473145,-0.11374999582767487,-0.6562499403953552,-0.5774999856948853,-0.09228258579969406,-0.5609094500541687,-0.5609094500541687,0.0,0.0,0.0,0.0,0.0,0.0,0.3077726662158966,1.3666431903839111,244.375,1.2060216665267944,-0.007590447086840868,0.08569551259279251,0.8462573885917664,-0.004080010112375021,0.011523636057972908,0.5326257348060608,0.0,1
1969-12-31T19:36:13.763000,763,2023,1,12,14,36,11,15,0.0,False,0,0,0,0,0,0,0,0,0,0,2.368894338607788,0.02871387079358101,9.753145217895508,1.224875807762146,0.042126286774873734,9.867457389831543,-0.2887499928474426,-0.6387500166893005,-0.32375001907348633,-0.11097152531147003,-0.5504075288772583,-0.5504075288772583,0.0,0.0,0.0,0.0,0.0,0.0,0.3073756694793701,1.3253666162490845,244.37167358398438,1.4517816305160522,-0.010487490333616734,0.06026593968272209,0.8462759852409363,-0.003890738822519779,0.011217085644602776,0.5326042175292969,0.0,1
1969-12-31T19:36:13.774000,774,2023,1,12,14,36,11,15,0.0,False,0,0,0,0,0,0,0,0,0,0,-3.9912283420562744,0.0933200865983963,9.698110580444336,0.28077423572540283,0.05139223486185074,9.836806297302246,-0.24500000476837158,-0.9099999666213989,-0.3149999976158142,-0.12372097373008728,-0.5585935115814209,-0.5585935115814209,0.0,0.0,0.0,0.0,0.0,0.0,0.3071887791156769,1.3112919330596924,244.3682861328125,0.5052708387374878,-0.0011898509692400694,0.029559148475527763,0.8462926745414734,-0.003826368134468794,0.011112389154732227,0.5325803756713867,0.0,1
1969-12-31T19:36:13.785000,785,2023,1,12,14,36,11,15,0.0,False,0,0,0,0,0,0,0,0,0,0,-5.979663372039795,0.08374879509210587,9.942177772521973,-0.852349042892456,0.057248689234256744,9.855877876281738,-0.1837499886751175,-0.875,-0.3762499988079071,-0.12943123281002045,-0.5674306154251099,-0.5674306154251099,0.0,0.0,0.0,0.0,0.0,0.0,0.30714020133018494,1.3301392793655396,244.36488342285156,-0.6246263384819031,0.004675325471907854,0.04870511591434479,0.8463071584701538,-0.003913996275514364,0.011251467280089855,0.5325537919998169,0.0,1
1969-12-31T19:36:13.796000,796,2023,1,12,14,36,11,15,0.0,False,0,0,0,0,0,0,0,0,0,0,-1.825723648071289,0.07417750358581543,9.868000030517578,-1.0285273790359497,0.06031276285648346,9.858072280883789,-0.07000000029802322,-0.612500011920929,-0.5249999761581421,-0.1237778440117836,-0.5676045417785645,-0.5676045417785645,0.0,0.0,0.0,0.0,0.0,0.0,0.3072071671485901,1.3539807796478271,244.36148071289062,-0.7967237234115601,0.007728449534624815,0.05099473521113396,0.8463212847709656,-0.004023974761366844,0.011427972465753555,0.5325268507003784,0.0,1
1969-12-31T19:36:13.807000,807,2023,1,12,14,36,11,15,0.0,False,0,0,0,0,0,0,0,0,0,0,-0.2153540551662445,0.08614161610603333,9.927821159362793,-0.8813450932502747,0.06498771905899048,9.870697021484375,-0.026249999180436134,-0.5950000286102295,-0.5425000190734863,-0.1145005151629448,-0.5677555799484253,-0.5677555799484253,0.0,0.0,0.0,0.0,0.0,0.0,0.30745258927345276,1.3734724521636963,244.35806274414062,-0.6462050676345825,0.012361811473965645,0.0636991336941719,0.8463356494903564,-0.004112408962100744,0.0115731880068779,0.5325002074241638,0.0,1
1969-12-31T19:36:13.818000,818,2023,1,12,14,36,11,15,0.0,False,0,0,0,0,0,0,0,0,0,0,-0.2225324958562851,0.10049854964017868,9.911070823669434,-0.7621017098426819,0.07141508907079697,9.878005027770996,-0.12250000238418579,-0.7262499332427979,-0.48125001788139343,-0.11526146531105042,-0.5725009441375732,-0.5725009441375732,0.0,0.0,0.0,0.0,0.0,0.0,0.3078770935535431,1.3894189596176147,244.35464477539062,-0.5242321491241455,0.018716882914304733,0.07107343524694443,0.846350371837616,-0.0041830348782241344,0.011693057604134083,0.532473623752594,0.0,1
1969-12-31T19:36:13.829000,829,2023,1,12,14,36,11,15,0.0,False,0,0,0,0,0,0,0,0,0,0,-0.16031910479068756,0.02871387079358101,9.89432144165039,-0.6531805992126465,0.06368627399206161,9.880958557128906,-0.17499999701976776,-0.73499995470047,-0.5687500238418579,-0.12094409018754959,-0.5829652547836304,-0.5829652547836304,0.0,0.0,0.0,0.0,0.0,0.0,0.3080454170703888,1.4021072387695312,244.3511505126953,-0.4131391942501068,0.010959538631141186,0.07407987117767334,0.8463656306266785,-0.004240397829562426,0.01178767904639244,0.5324468612670898,0.0,1
1969-12-31T19:36:13.847000,847,2023,1,12,14,36,11,15,0.0,False,0,0,0,0,0,0,0,0,0,0,-7.307680606842041,0.09092725813388824,9.903892517089844,-1.8576282262802124,0.0686168223619461,9.885109901428223,-0.03500000014901161,-0.38499999046325684,-0.6037499904632568,-0.11276866495609283,-0.5712859034538269,-0.5712859034538269,0.0,0.0,0.0,0.0,0.0,0.0,0.308389276266098,1.4489654302597046,244.34771728515625,-1.609566330909729,0.015832306817173958,0.07843148708343506,0.8463777899742126,-0.004455245565623045,0.012135488912463188,0.532417893409729,0.0,1
1969-12-31T19:36:13.858000,858,2023,1,12,14,36,11,15,0.0,False,0,0,0,0,0,0,0,0,0,0,-2.1990041732788086,0.0526420958340168,9.796216011047363,-1.9194164276123047,0.06572543829679489,9.869020462036133,0.07874999940395355,-0.27125000953674316,-0.6912499666213989,-0.0945504754781723,-0.5594159960746765,-0.5594159960746765,0.0,0.0,0.0,0.0,0.0,0.0,0.30874189734458923,1.4975134134292603,244.3443603515625,-1.663045048713684,0.012881710194051266,0.0625564306974411,0.8463894128799438,-0.004677864722907543,0.012495829723775387,0.5323891043663025,0.0,1
1969-12-31T19:36:13.869000,869,2023,1,12,14,36,11,15,0.0,False,0,0,0,0,0,0,0,0,0,0,2.5004994869232178,0.016749760136008263,9.868000030517578,-1.1194229125976562,0.05686096474528313,9.86883544921875,0.09624999761581421,-0.42875000834465027,-0.7087500095367432,-0.07640060037374496,-0.5606465339660645,-0.5606465339660645,0.0,0.0,0.0,0.0,0.0,0.0,0.3089301288127899,1.52336847782135,244.34097290039062,-0.8586262464523315,0.003985659219324589,0.062488049268722534,0.8464029431343079,-0.004796236753463745,0.012687806971371174,0.5323620438575745,0.0,1
1969-12-31T19:36:13.880000,880,2023,1,12,14,36,11,15,0.0,False,0,0,0,0,0,0,0,0,0,0,4.287938594818115,0.08374879509210587,9.93978500366211,-0.1407042145729065,0.06172759458422661,9.88167667388916,0.008750000037252903,-0.7524999976158142,-0.5774999856948853,-0.06830065697431564,-0.5744040012359619,-0.5744040012359619,0.0,0.0,0.0,0.0,0.0,0.0,0.3092954456806183,1.520775318145752,244.33753967285156,0.11964860558509827,0.008789701387286186,0.07531674206256866,0.8464192748069763,-0.004781108349561691,0.012670493684709072,0.5323368310928345,0.0,1
1969-12-31T19:36:13.891000,891,2023,1,12,14,36,11,15,0.0,False,0,0,0,0,0,0,0,0,0,0,1.4931213855743408,-0.04307080805301666,10.028319358825684,0.1550140678882599,0.042759351432323456,9.908218383789062,-0.14000000059604645,-0.6562499403953552,-0.4724999964237213,-0.07512105256319046,-0.5730817914009094,-0.5730817914009094,0.0,0.0,0.0,0.0,0.0,0.0,0.30907154083251953,1.5096265077590942,244.33407592773438,0.4134586751461029,-0.010140487924218178,0.10180843621492386,0.8464362025260925,-0.004730584565550089,0.012587249279022217,0.5323122143745422,0.0,1
1969-12-31T19:36:13.902000,902,2023,1,12,14,36,11,15,0.0,False,0,0,0,0,0,0,0,0,0,0,-0.11006984114646912,0.09092725813388824,9.81057357788086,0.10703454911708832,0.051477618515491486,9.890544891357422,-0.061250001192092896,-0.5162500143051147,-0.5774999856948853,-0.07380156964063644,-0.5696268081665039,-0.5696268081665039,0.0,0.0,0.0,0.0,0.0,0.0,0.3091111481189728,1.4999150037765503,244.33065795898438,0.3638169765472412,-0.0014292348641902208,0.08409138023853302,0.8464529514312744,-0.00468479935079813,0.012515841983258724,0.5322876572608948,0.0,1
1969-12-31T19:36:13.913000,913,2023,1,12,14,36,11,15,0.0,False,0,0,0,0,0,0,0,0,0,0,-0.1866401731967926,0.08614161610603333,9.848858833312988,0.053880173712968826,0.05775171518325806,9.882999420166016,-0.13124999403953552,-0.5600000023841858,-0.4375,-0.07926634699106216,-0.5602827072143555,-0.5602827072143555,0.0,0.0,0.0,0.0,0.0,0.0,0.30930814146995544,1.4918222427368164,244.3272705078125,0.3092774450778961,0.004810936748981476,0.07650978863239288,0.8464693427085876,-0.004645380657166243,0.01245711836963892,0.5322633385658264,0.0,1
1969-12-31T19:36:14,0,2023,1,12,14,36,11,15,0.0,False,0,0,0,0,0,0,0,0,0,0,-0.1339980810880661,-0.02153540402650833,9.899106979370117,0.019874688237905502,0.043400947004556656,9.88591480255127,-0.14000000059604645,-0.6037499904632568,-0.4724999964237213,-0.08504363149404526,-0.5573615431785583,-0.5573615431785583,0.0,0.0,0.0,0.0,0.0,0.0,0.3090592920780182,1.4847577810287476,244.3238983154297,0.2740628123283386,-0.009497399441897869,0.07939409464597702,0.8464855551719666,-0.004614036064594984,0.012403915636241436,0.5322389602661133,0.0,1
1969-12-31T19:36:14.010000,10,2023,1,12,14,36,11,15,0.0,False,0,0,0,0,0,0,0,0,0,0,6.991827964782715,0.05742774158716202,10.078569412231445,1.2817806005477905,0.04593976214528084,9.920784950256348,-0.3062500059604645,-0.6912499666213989,-0.45499998331069946,-0.106085866689682,-0.5594397187232971,-0.5594397187232971,0.0,0.0,0.0,0.0,0.0,0.0,0.30877792835235596,1.4415944814682007,244.32049560546875,1.5285807847976685,-0.006911449134349823,0.11407530307769775,0.846504807472229,-0.004415254108607769,0.012083903886377811,0.5322173833847046,0.0,1
1969-12-31T19:36:14.021000,21,2023,1,12,14,36,11,15,0.0,False,0,0,0,0,0,0,0,0,0,0,2.579463005065918,0.035892341285943985,9.719645500183105,1.516657829284668,0.04412120580673218,9.884379386901855,-0.3149999976158142,-0.73499995470047,-0.2537499964237213,-0.12595880031585693,-0.5508618950843811,-0.5508618950843811,0.0,0.0,0.0,0.0,0.0,0.0,0.30835551023483276,1.3918973207473755,244.31716918945312,1.7549515962600708,-0.008658839389681816,0.07745891064405441,0.8465242385864258,-0.004187188111245632,0.011714954860508442,0.532196581363678,0.0,1
1969-12-31T19:36:14.032000,32,2023,1,12,14,36,11,15,0.0,False,0,0,0,0,0,0,0,0,0,0,-3.8500516414642334,0.08614161610603333,9.738787651062012,0.5452970266342163,0.05172679200768471,9.858027458190918,-0.27125000953674316,-0.9625000357627869,-0.3149999976158142,-0.13977961242198944,-0.5624486804008484,-0.5624486804008484,0.0,0.0,0.0,0.0,0.0,0.0,0.3080883026123047,1.3699002265930176,244.31378173828125,0.7798256278038025,-0.001007997547276318,0.05101567506790161,0.846541702747345,-0.0040866476483643055,0.011551340110599995,0.532173216342926,0.0,1
1969-12-31T19:36:14.043000,43,2023,1,12,14,36,11,15,0.0,False,0,0,0,0,0,0,0,0,0,0,-6.02512788772583,0.08374879509210587,9.908679008483887,-0.6439331769943237,0.057522691786289215,9.867195129394531,-0.20124998688697815,-0.8837499618530273,-0.4112500250339508,-0.1456269770860672,-0.5736614465713501,-0.5736614465713501,0.0,0.0,0.0,0.0,0.0,0.0,0.3079588711261749,1.3824456930160522,244.31033325195312,-0.40725719928741455,0.0048103355802595615,0.060235053300857544,0.8465567231178284,-0.004145522601902485,0.011643540114164352,0.5321468114852905,0.0,1
1969-12-31T19:36:14.057000,57,2023,1,12,14,36,11,15,0.0,False,0,0,0,0,0,0,0,0,0,0,-0.20338992774486542,-0.016749760136008263,9.966106414794922,-0.564195990562439,0.04407956451177597,9.88509750366211,-0.07000000029802322,-0.6475000381469727,-0.5337499976158142,-0.13843296468257904,-0.5758978724479675,-0.5758978724479675,0.0,0.0,0.0,0.0,0.0,0.0,0.3074726164340973,1.3925973176956177,244.30685424804688,-0.3257823586463928,-0.00854934100061655,0.07817897200584412,0.8465720415115356,-0.004195908084511757,0.011716403067111969,0.5321204662322998,0.0,1
1969-12-31T19:36:14.068000,68,2023,1,12,14,36,11,15,0.0,False,0,0,0,0,0,0,0,0,0,0,-0.27038899064064026,0.11724831163883209,9.81775188446045,-0.5110176801681519,0.057322923094034195,9.872908592224121,-0.008750000037252903,-0.6650000214576721,-0.5512499809265137,-0.12609688937664032,-0.5801465511322021,-0.5801465511322021,0.0,0.0,0.0,0.0,0.0,0.0,0.3074350357055664,1.401171326637268,244.30337524414062,-0.27113649249076843,0.004700645338743925,0.06602568924427032,0.8465875387191772,-0.004235646687448025,0.011779696680605412,0.5320941209793091,0.0,1
1969-12-31T19:36:14.079000,79,2023,1,12,14,36,11,15,0.0,False,0,0,0,0,0,0,0,0,0,0,-0.2105683833360672,0.08853443711996078,9.90149974822998,-0.45663711428642273,0.06297212839126587,9.878083229064941,-0.16625000536441803,-0.6825000047683716,-0.4724999964237213,-0.12991644442081451,-0.579797625541687,-0.579797625541687,0.0,0.0,0.0,0.0,0.0,0.0,0.3075414299964905,1.408132791519165,244.29989624023438,-0.21556435525417328,0.010331789031624794,0.07122969627380371,0.8466030955314636,-0.004266831092536449,0.011831749230623245,0.5320679545402527,0.0,1
1969-12-31T19:36:14.090000,90,2023,1,12,14,36,11,15,0.0,False,0,0,0,0,0,0,0,0,0,0,-0.17946171760559082,0.04307080805301666,9.89671516418457,-0.40646907687187195,0.05937004089355469,9.881455421447754,-0.19249999523162842,-0.6650000214576721,-0.5249999761581421,-0.13586969673633575,-0.5818018317222595,-0.5818018317222595,0.0,0.0,0.0,0.0,0.0,0.0,0.3075122535228729,1.4136008024215698,244.29641723632812,-0.16446037590503693,0.006734824739396572,0.07462504506111145,0.8466188311576843,-0.004292077850550413,0.011872140690684319,0.5320417881011963,0.0,1
1969-12-31T19:36:14.101000,101,2023,1,12,14,36,11,15,0.0,False,0,0,0,0,0,0,0,0,0,0,-4.711467742919922,0.0263210479170084,9.930213928222656,-1.1856629848480225,0.05338825657963753,9.890280723571777,-0.09624999761581421,-0.5425000190734863,-0.4987499713897705,-0.1321008801460266,-0.5737365484237671,-0.5737365484237671,0.0,0.0,0.0,0.0,0.0,0.0,0.30732735991477966,1.441483974456787,244.29298400878906,-0.9388816952705383,0.000785334559623152,0.08356860280036926,0.8466326594352722,-0.004422555211931467,0.012077412568032742,0.5320141911506653,0.0,1
1969-12-31T19:36:14.112000,112,2023,1,12,14,36,11,15,0.0,False,0,0,0,0,0,0,0,0,0,0,-2.447857618331909,0.0526420958340168,9.781858444213867,-1.4141169786453247,0.05325320363044739,9.870656967163086,0.07000000029802322,-0.2800000011920929,-0.6737499833106995,-0.1128760576248169,-0.5609667301177979,-0.5609667301177979,0.0,0.0,0.0,0.0,0.0,0.0,0.30723831057548523,1.4758892059326172,244.2895965576172,-1.1614468097686768,0.0006663225940428674,0.06409496814012527,0.8466455340385437,-0.0045826006680727005,0.012331320904195309,0.5319864749908447,0.0,1
1969-12-31T19:36:14.123000,123,2023,1,12,14,36,11,15,0.0,False,0,0,0,0,0,0,0,0,0,0,1.600798487663269,0.05024927482008934,9.824929237365723,-0.8684249520301819,0.05270950123667717,9.862380027770996,0.017500000074505806,-0.4462500214576721,-0.6212499737739563,-0.100474052131176,-0.5573785901069641,-0.5573785901069641,0.0,0.0,0.0,0.0,0.0,0.0,0.3071962594985962,1.4946290254592896,244.28622436523438,-0.6125472784042358,0.0001302626042161137,0.05590102821588516,0.8466596007347107,-0.004669553600251675,0.01246971357613802,0.531960129737854,0.0,1
1969-12-31T19:36:14.134000,134,2023,1,12,14,36,11,15,0.0,False,0,0,0,0,0,0,0,0,0,0,3.3930225372314453,0.08853443711996078,9.872786521911621,-0.09711378812789917,0.059193722903728485,9.864263534545898,0.07874999940395355,-0.6650000214576721,-0.6562499403953552,-0.08342538774013519,-0.5709901452064514,-0.5709901452064514,0.0,0.0,0.0,0.0,0.0,0.0,0.30742570757865906,1.4908721446990967,244.28280639648438,0.15812088549137115,0.006575123406946659,0.05776841938495636,0.8466758131980896,-0.00465004425495863,0.012443162500858307,0.5319350361824036,0.0,1
1969-12-31T19:36:14.145000,145,2023,1,12,14,36,11,15,0.0,False,0,0,0,0,0,0,0,0,0,0,4.816751956939697,0.06939186155796051,9.985248565673828,0.7922834157943726,0.06103955954313278,9.886161804199219,-0.09624999761581421,-0.699999988079071,-0.5950000286102295,-0.0846453309059143,-0.5810768604278564,-0.5810768604278564,0.0,0.0,0.0,0.0,0.0,0.0,0.30769699811935425,1.461366891860962,244.27932739257812,1.0424679517745972,0.008373833261430264,0.07953623682260513,0.8466944694519043,-0.004510687664151192,0.012226561084389687,0.5319116711616516,0.0,1
1969-12-31T19:36:14.156000,156,2023,1,12,14,36,11,15,0.0,False,0,0,0,0,0,0,0,0,0,0,-0.18424734473228455,0.10289137810468674,9.7938232421875,0.6155338287353516,0.06861463189125061,9.8694486618042,-0.08749999850988388,-0.4987499713897705,-0.4462500214576721,-0.08491688221693039,-0.5667625665664673,-0.5667625665664673,0.0,0.0,0.0,0.0,0.0,0.0,0.3081924021244049,1.437083125114441,244.27590942382812,0.8615618944168091,0.015863541513681412,0.06271913647651672,0.8467121720314026,-0.004393936600536108,0.012049570679664612,0.5318883657455444,0.0,1
1969-12-31T19:36:14.167000,167,2023,1,12,14,36,11,15,0.0,False,0,0,0,0,0,0,0,0,0,0,-0.1627119481563568,0.07896315306425095,9.82971477508545,0.474673330783844,0.07048768550157547,9.86225700378418,-0.05249999836087227,-0.5337499976158142,-0.4724999964237213,-0.08183322846889496,-0.5583728551864624,-0.5583728551864624,0.0,0.0,0.0,0.0,0.0,0.0,0.30876004695892334,1.416983962059021,244.27255249023438,0.7172611355781555,0.017638973891735077,0.05544211342930794,0.8467293977737427,-0.004296089988201857,0.011903824284672737,0.5318650603294373,0.0,1
1969-12-31T19:36:14.177000,177,2023,1,12,14,36,11,15,0.0,False,0,0,0,0,0,0,0,0,0,0,-0.12681959569454193,0.004785645287483931,9.911070823669434,0.36580464243888855,0.05859578400850296,9.871091842651367,-0.10499999672174454,-0.5950000286102295,-0.42875000834465027,-0.08403696119785309,-0.5522428154945374,-0.5522428154945374,0.0,0.0,0.0,0.0,0.0,0.0,0.3089694082736969,1.4001479148864746,244.26922607421875,0.6055106520652771,0.0057108537293970585,0.06420623511075974,0.8467462062835693,-0.004216047469526529,0.011780518107116222,0.5318416953086853,0.0,1
1969-12-31T19:36:14.188000,188,2023,1,12,14,36,11,15,0.0,False,0,0,0,0,0,0,0,0,0,0,5.417350769042969,0.05503492057323456,9.93978500366211,1.2801216840744019,0.05795127525925636,9.883524894714355,-0.07874999940395355,-0.5774999856948853,-0.49000000953674316,-0.08353403955698013,-0.5498048067092896,-0.5498048067092896,0.0,0.0,0.0,0.0,0.0,0.0,0.30916061997413635,1.3572157621383667,244.26589965820312,1.5124790668487549,0.005032666958868504,0.07646264135837555,0.8467649221420288,-0.0040150233544409275,0.011464295908808708,0.5318203568458557,0.0,1
1969-12-31T19:36:14.205000,205,2023,1,12,14,36,11,15,0.0,False,0,0,0,0,0,0,0,0,0,0,2.7349963188171387,0.014356935396790504,9.755537986755371,1.5434503555297852,0.050060808658599854,9.860359191894531,-0.32375001907348633,-0.73499995470047,-0.3062500059604645,-0.10638456046581268,-0.5459578633308411,-0.5459578633308411,0.0,0.0,0.0,0.0,0.0,0.0,0.3090164363384247,1.3069607019424438,244.26258850097656,1.7672055959701538,-0.0028342008590698242,0.05309658870100975,0.8467839956283569,-0.0037825070321559906,0.011092389933764935,0.5317996144294739,0.0,1
1969-12-31T19:36:14.216000,216,2023,1,12,14,36,11,15,0.0,False,0,0,0,0,0,0,0,0,0,0,-3.713660955429077,0.0813559740781784,9.748359680175781,0.5919265151023865,0.05572515353560448,9.840087890625,-0.3062500059604645,-0.9099999666213989,-0.3062500059604645,-0.1253967434167862,-0.5541536808013916,-0.5541536808013916,0.0,0.0,0.0,0.0,0.0,0.0,0.30894601345062256,1.283902883529663,244.25924682617188,0.8117347955703735,0.002841722220182419,0.03273603692650795,0.8468011617660522,-0.0036756896879523993,0.010921787470579147,0.5317765474319458,0.0,1
1969-12-31T19:36:14.227000,227,2023,1,12,14,36,11,15,0.0,False,0,0,0,0,0,0,0,0,0,0,-6.068198204040527,0.062213387340307236,9.985248565673828,-0.6135391592979431,0.056899506598711014,9.866361618041992,-0.27125000953674316,-0.8837499618530273,-0.4112500250339508,-0.13927102088928223,-0.5664600133895874,-0.5664600133895874,0.0,0.0,0.0,0.0,0.0,0.0,0.3088352382183075,1.2958883047103882,244.25582885742188,-0.3916792571544647,0.004035270307213068,0.05905592814087868,0.8468161225318909,-0.0037318062968552113,0.011009952053427696,0.531750500202179,0.0,1
1969-12-31T19:36:14.238000,238,2023,1,12,14,36,11,15,0.0,False,0,0,0,0,0,0,0,0,0,0,-0.20578275620937347,-0.04307080805301666,9.978071212768555,-0.539736270904541,0.03880513459444046,9.886580467224121,-0.12250000238418579,-0.6825000047683716,-0.5337499976158142,-0.1376756727695465,-0.5719529390335083,-0.5719529390335083,0.0,0.0,0.0,0.0,0.0,0.0,0.3082043528556824,1.3056347370147705,244.25241088867188,-0.3162080943584442,-0.013950894586741924,0.07931087166070938,0.8468315005302429,-0.0037813668604940176,0.011079158633947372,0.5317244529724121,0.0,1
1969-12-31T19:36:14.249000,249,2023,1,12,14,36,11,15,0.0,False,0,0,0,0,0,0,0,0,0,0,-0.2871387302875519,0.10767702758312225,9.853643417358398,-0.49401676654815674,0.05127077177166939,9.880619049072266,-0.08749999850988388,-0.6387500166893005,-0.5162500143051147,-0.13290271162986755,-0.5726842284202576,-0.5726842284202576,0.0,0.0,0.0,0.0,0.0,0.0,0.30796119570732117,1.3140276670455933,244.24893188476562,-0.2690518796443939,-0.0014434684999287128,0.07338333874940872,0.8468467593193054,-0.0038217788096517324,0.011140169575810432,0.5316983461380005,0.0,1
1969-12-31T19:36:14.260000,260,2023,1,12,14,36,11,15,0.0,False,0,0,0,0,0,0,0,0,0,0,-0.21296121180057526,0.08853443711996078,9.89671516418457,-0.44314640760421753,0.05801539868116379,9.883532524108887,-0.14000000059604645,-0.7612499594688416,-0.4987499713897705,-0.1335778385400772,-0.5802404880523682,-0.5802404880523682,0.0,0.0,0.0,0.0,0.0,0.0,0.30790975689888,1.320875883102417,244.24545288085938,-0.2170092910528183,0.005310107953846455,0.0763237401843071,0.8468623757362366,-0.0038535986095666885,0.011190655641257763,0.5316721796989441,0.0,1
1969-12-31T19:36:14.271000,271,2023,1,12,14,36,11,15,0.0,False,0,0,0,0,0,0,0,0,0,0,-0.14835500717163086,0.02392822690308094,9.848858833312988,-0.3897899091243744,0.05184570699930191,9.877256393432617,-0.10499999672174454,-0.6387500166893005,-0.5249999761581421,-0.130859375,-0.5804559588432312,-0.5804559588432312,0.0,0.0,0.0,0.0,0.0,0.0,0.30769404768943787,1.326159954071045,244.24200439453125,-0.16274835169315338,-0.0008225345518440008,0.07006726413965225,0.8468782305717468,-0.0038793704006820917,0.01122882030904293,0.5316461324691772,0.0,1
1969-12-31T19:36:14.282000,282,2023,1,12,14,36,11,15,0.0,False,0,0,0,0,0,0,0,0,0,0,-4.421936511993408,0.02871387079358101,10.037891387939453,-1.119598150253296,0.047658905386924744,9.906331062316895,-0.04374999925494194,-0.5249999761581421,-0.5425000190734863,-0.12257310748100281,-0.5742984414100647,-0.5742984414100647,0.0,0.0,0.0,0.0,0.0,0.0,0.3073955774307251,1.3523921966552734,244.238525390625,-0.8880663514137268,-0.004957705270498991,0.09924820065498352,0.8468921780586243,-0.004002948757261038,0.011421418748795986,0.531618595123291,0.0,1
